Address,Latitude,Longitude
128 E Canon Perdido St,34.422427,-119.698366
321 Motor Way,34.415092,-119.694355
1101 State St,33.984526,-81.05555
1819 Cliff Dr C,34.401114,-119.721503
528 Anacapa St,34.418895,-119.69513
29 State St,34.412516,-119.690133
38 W Victoria St #102,33.86486,-118.200851
811 State St,34.419611,-119.700034
711 Chapala St,34.417682,-119.69986
1213 State St Suite L,34.423444,-119.705267
918 State St,34.421069,-119.701036
604 Santa Barbara St,34.420244,-119.694666
1131 State St,34.422747,-119.704122
528 Anacapa St,34.418895,-119.69513
28 W Figueroa St,34.421767,-119.70415
819 State St Suite A,34.419802,-119.700191
131 Anacapa StåÊ,34.414445,-119.690672
2000 Cliff Dr,33.618854,-117.916995
1017 State St,34.421697,-119.70265
220 W Carrillo St,34.419084,-119.704987
25 W Gutierrez St,34.415051,-119.694758
17 W Canon Perdido St,34.419156,-119.699905
1235 State St,34.424028,-119.705824
800 State St,40.751867,-111.888303
1990 Cliff Dr,34.402407,-119.723347
208 W Carrillo St,34.419273,-119.704551