Prison Name,Latitude,Longitude,Size
180 Degrees,44.966196,-93.282606,21
Abbeville County Detention Center,34.163074,-82.416575,79
Aberdeen City Jail,46.976379,-123.817475,23
Acadia Parish Criminal Justice Center and Detention Center,30.202967,-92.426896,109
Acadia Parish Jail,30.214455,-92.373653,132
Accomack County Jail,37.721716,-75.670244,92
Acton Conservation Camp,34.438069,-118.287386,103
Acworth City Jail,34.060344,-84.660353,16
Ada County Jail,43.605559,-116.270551,935
Adair County Jail,35.802975,-94.626436,25
Adair County Jail,37.103958,-85.306744,112
Adams County Adult Correctional Facility,39.858469,-77.154698,304
Adams County Correctional Center,31.561438,-91.225649,1976
Adams County Detention Center,39.992589,-104.797794,1294
Adams County Jail,31.55913,-91.40513,62
Adams County Jail,38.795312,-83.546085,51
Adams County Jail,39.935091,-91.407551,110
Adams County Jail,40.587457,-98.388105,28
Adams County Jail,40.827099,-84.919917,93
Adams County Jail,43.971321,-89.815586,62
Adams County Jail,44.737012,-116.436354,19
Adams County Jail,47.127367,-118.382623,28
Adamsville City Jail,33.601097,-86.954786,7
Addison County Jail,44.011384,-73.163376,19
Adelanto Detention Center,34.548376,-117.456865,746
Adirondack,44.29659,-74.090934,285
Adirondack,44.297592,-74.09291,130
Adult Diagnostic Cntr./E. Jersey State,40.588709,-74.275902,2580
Affinity House,44.852525,-91.476884,12
Airway Heights Corrections Center,47.651481,-117.576071,2184
Aitkin County Jail,46.532832,-93.710349,78
Ajo District Jail,32.381949,-112.858611,6
Alabaster City Jail,33.246389,-86.816083,4
Alachua County Jail,29.678279,-82.280326,974
Alamance County Jail- Prison Camp Road Facility,36.05618,-79.391192,65
Alamosa County Jail,37.455603,-105.876218,68
Albany County Correctional Facility,42.734321,-73.796784,680
Albany Diversion Center,31.580387,-84.150299,154
Albemarle Correctional Institution,35.416668,-80.135969,575
Albermarle-Charlottesville Regional Jail,38.003879,-78.502892,560
Albertville City Jail,34.266855,-86.210007,30
Albion Correctional Facility,43.242628,-78.214562,914
Alcona County Jail,44.65686,-83.297255,28
Alcorn County Regional Correctional Facility,34.90814,-88.553421,75
Aldair County Jail,40.196192,-92.583726,39
Alder Conservation Camp,41.507517,-124.063306,101
Alderson FPC,37.723355,-80.668815,1124
Alexander Correctional Institution,35.881127,-81.177699,966
Alexander County Jail,35.922368,-81.175711,21
Alexandria City Detention Center,38.79927,-77.068725,400
Alfalfa County Jail,36.755187,-98.356709,11
Alger County Jail,46.407704,-86.658175,16
Alger Max,46.380392,-86.656748,847
Algoa Correction Center; Jefferson City Correction Center,38.554063,-92.053483,3368
All that is contained within this block is a skating facility.,26.635727,-81.869592,5
Alle Kiski Pavilion,40.578168,-79.768855,77
Allegan County Jail,42.528295,-85.851743,158
Allegany County Detention Center,39.599906,-78.82227,137
Allegany County Jail,42.2112,-78.013778,100
Alleghany County Jail,36.506737,-81.120347,15
Alleghany County Jail,37.79315,-79.995526,86
Allegheny County Jail,40.434603,-79.993347,2594
Allen and Oakwood Correctional Institutions,40.773656,-84.09865,2886
Allen City Jail,33.100202,-96.673163,7
Allen County Detention Center,36.747041,-86.192965,79
Allen County Jail,37.922655,-95.404422,30
Allen County Jail,40.743384,-84.105447,194
Allen County Jail,41.084177,-85.140116,774
Allen County Work Release,41.195286,-85.171789,73
Allen Parish Jail,30.621396,-92.771794,47
Allendale Correctional Institution,32.963936,-81.283271,1236
Allendale County Jail,32.988983,-81.287766,28
Allentown CCC,40.602255,-75.470094,42
Allenwood Federal Correctional Complex (FCC),41.123578,-76.933509,1439
Allenwood Federal Correctional Complex (FCC),41.127157,-76.922501,1383
Allenwood Federal Correctional Complex (FCC),41.133349,-76.920559,1042
Alpena County Jail,45.079333,-83.450548,55
Alpha House,37.251237,-93.306366,96
Alpha House: Men's Pre-Release Center,45.780472,-108.510482,202
Alpha II,36.701014,-97.081969,13
Alpharetta Jail,34.0665,-84.28475,38
Alternative Programs,42.593339,-89.016222,81
Altona,44.892419,-73.658122,416
Altus Community Work Center,34.637542,-99.33726,89
Alvis House,39.960264,-82.974018,21
Alvis House,39.960844,-82.977107,60
Amador County Jail,38.351801,-120.768678,93
Amherst County Jail,37.584504,-79.048672,64
Amite County Jail,31.156638,-90.81058,39
Anaconda-Deer Lodge County Jail,46.122642,-112.954686,24
Anaheim City Jail,33.830464,-117.920318,46
Anamosa State Penitentiary,42.111428,-91.29105,1043
Anchorage C. Complex/East,61.218641,-149.85411,629
Anderson City Jail,34.501246,-82.648919,131
Anderson County Detention Facility,36.124749,-84.120683,240
Anderson County Jail,31.764496,-95.618993,176
Anderson County Jail,34.532688,-82.683926,366
Anderson County Jail,38.280483,-95.2412,19
Andrew County Jail,39.939918,-94.829481,15
Androscoggin County Jail,44.098174,-70.226988,125
Angelina County Jail,31.343347,-94.70136,276
Anniston City Jail,33.660384,-85.832178,50
Anoka County Jail,45.198629,-93.386306,199
Anson County Jail,34.966724,-80.076109,71
Antelope County Jail,42.130094,-98.028215,6
Anthony Correctional Center,37.963122,-80.126842,213
Antrim County Jail,44.975961,-85.208324,42
Anvil Mountain Correctional Center,64.540313,-165.414807,91
Apache County Jail,34.502005,-109.365262,95
Appalachian Detention Center,36.993133,-81.918022,104
Applachee Correctional Institute,30.710984,-84.885908,1164
Applachee Correctional Institute- East,30.708083,-84.877227,884
Appling County Sheriff's Dept,31.784999,-82.358399,62
Appling Pre-Release Center,31.809192,-82.425209,207
Arab City Jail,34.328931,-86.496504,14
Aramark Correctional Services,31.847316,-102.368059,212
Aramark Corrections,30.058792,-94.788765,339
Aransas County Jail,28.025904,-97.052996,192
Aransas Pass City Jail,27.910209,-97.149423,1
Arapahoe Community Treatment Center,39.65569,-105.02874,129
Arapahoe County Patrick J. Sullivan Detention Facility,39.582433,-104.833759,1133
Arc House/ Dayton Facility,43.095309,-89.3583,9
Arcadia Road Prison,27.234893,-81.893722,96
Archuleta County Jail,37.265925,-107.011798,26
Ardmore Community Work Center,34.170457,-97.128704,159
Arenec County Jail,43.983859,-83.95641,43
Arizona State Prison Complex- Safford,32.816127,-109.541406,77
Arizona State Prison Complex- Safford,32.827015,-109.558329,936
Arizona State Prison-Phoenix West,33.433433,-112.131542,497
Arkansas County Detention Center,34.273792,-91.345308,80
Arkansas Valley Correctional Facility,38.189609,-103.847101,995
Arlington County Jail,38.890248,-77.083315,544
Aroostook County Jail,46.125056,-67.838995,58
Arthurkill,40.55149,-74.228813,918
Ascension Parish Jail,30.100735,-90.929079,460
Ash Street Jail and Regional Lock-Up,41.63376,-70.934258,185
Ashe County Jail,36.420244,-81.467319,41
Ashland County Jail,46.588508,-90.877795,34
Ashley County Jail,33.236588,-91.837049,80
Ashtabula County Jail,41.739346,-80.772034,34
Asotin County Jail,46.413595,-117.044906,47
ASPC - Winslow Apache Unit,34.321966,-109.401592,333
ASPC Florence- Central Unit,33.028872,-111.376725,3958
ASPC Florence-Picacho Unit,32.66142,-111.50797,183
ASPC Phoenix,33.452764,-112.027963,421
ASPC Tucson,32.067693,-110.867819,4116
ASPC Yuma,32.487804,-114.626599,2404
ASPC- Douglas,31.455835,-109.582158,131
ASPC- Douglas,31.460487,-109.591122,2163
ASPC- Eyman,33.036855,-111.330167,5426
ASPC- Lewis,33.209613,-112.6527,5084
ASPC- Perryville,33.468561,-112.448734,1294
ASPC- Perryville,33.470766,-112.435504,2202
ASPC- Winslow,34.991113,-110.721378,1413
ASPC-Kingman,35.032643,-114.179623,1481
Assumption Parish Jail,29.933877,-91.033585,75
Atchison County Jail,39.56512,-95.119727,36
Atchison County Jail,40.411305,-95.519683,8
Athanum View Correctional Complex and Work Release,46.566395,-120.588805,58
Atkinson County Jail,31.295719,-82.85349,11
Atlanta City Jail,33.747234,-84.395289,453
Atlanta Transitional Center,33.773003,-84.3767,253
Atlanta USP and Atlanta Camp,33.710293,-84.367789,2389
Atlantic County Jail - Dept. Of Public Safety,39.437439,-74.693709,953
Atlantic Work Release Center,26.683416,-80.193822,92
Atoka County Jail,34.38518,-96.126971,56
Attala County Jail,33.060097,-89.590421,25
Attic Correctional Services,44.513472,-87.947256,11
Attic Correctional Services- Madison,43.051845,-89.47704,14
Attic Correctional Services- Madison,43.126041,-89.312791,18
Attica,42.849688,-78.271763,2157
Auburn,42.934596,-76.574232,1733
Audrain County Jail,39.167981,-91.819479,55
Auglaize County Jail,40.560113,-84.209391,54
Augusta Medical Corr Instit,33.433164,-82.18271,1099
Augusta-Richmond County,33.465823,-81.960187,378
Austin City Jail,30.273695,-97.746332,281
Austin County Jail,29.957905,-96.267037,26
Autauga Metro Jail,32.465298,-86.473973,181
Avalon Correctional Center,36.155312,-95.997006,241
Avenal State Prison,35.970741,-120.120932,6423
Avery County Jail,36.08639,-81.926513,30
Avon Park correctional Institution,27.66324,-81.324336,1186
Avon Park Work Camp,27.646548,-81.353488,175
Avoyelles Marksville Detention Center,31.114616,-92.069301,416
Avoyelles Simmesport Correctional Center,30.969613,-91.811912,277
B.B. Rayburn Correctional Center,30.897929,-89.826457,1125
Baca County Jail,37.412981,-102.614359,9
Bacon County Jail,31.544205,-82.468082,48
Bacon Probation Detention Center,31.535537,-82.452366,190
Bailey County Sheriffs Department,34.224464,-102.726238,56
Bainbridge Substance Abuse Treatment Center,30.984085,-84.631346,385
Baker Corr Inst and Work Camp,30.212971,-82.378958,1373
Baker County Jail,30.293223,-82.121569,270
Bakers Street Jail,29.764328,-95.356172,508
Baldwin County Jail,30.88511,-87.774451,486
Baldwin State Prison,33.024995,-83.221061,880
Ballard County Jail,36.972903,-89.083483,65
Baltimore County Jail,39.409652,-76.611334,1322
Bamberg County Jail,33.298836,-81.033969,46
Bannock County Jail,42.824847,-112.389254,254
Bannum Place Of Clarksburg,39.273997,-80.335759,23
Bannum Place of Reno,39.53854,-119.809147,23
Bannum Place of Wilmington,34.236631,-77.940086,22
Baraga Maximum Correctional Facility,46.762159,-88.508745,853
Barbour County Jail,31.884053,-85.483701,98
Bare Hill and Upstate,44.883967,-74.331008,2827
Barnes County Correctional Facility,46.927065,-98.005451,17
Barnstable County Jail and House of Correction,41.677073,-70.56854,438
Barnwell County Detention Center,33.248347,-81.352877,70
Barren County Correctional Center,36.999752,-85.914539,133
Barron County Justice Center,45.411053,-91.850504,122
Barry County Jail,36.67703,-93.867824,55
Barry County Jail,42.646692,-85.299919,79
Bartholomew County Jail,39.199868,-85.918939,174
Barton County Jail,37.495132,-94.278358,6
Barton County Jail,38.366009,-98.763065,65
Bartow County Jail,34.191399,-84.778241,594
Bartow Work Release Center,27.903708,-81.824709,78
Baseline Conservation Camp,37.900865,-120.52226,117
Bastrop County Jail,30.100934,-97.310362,300
Bates County Jail,38.257005,-94.332513,84
Bautista Conservation Camp- SCC,33.637704,-116.81466,115
Baxter County Jail,36.332703,-92.388159,51
Bay City Work Camp,29.73345,-85.060492,280
Bay County Jail - Cca,30.258952,-85.500465,979
Bay County Jail and Annex,30.225338,-85.559236,854
Bay County Law Enforcement Center,43.601372,-83.884775,177
Bay State Correctional Center,42.117355,-71.299936,318
Bayfield County Jail,46.67775,-90.893603,48
Baylor Women's Correctional Institution,39.706847,-75.582764,342
Bayou Dorcheat Correction Center (Webster Parish),32.566516,-93.410582,447
Bayside,39.242017,-74.958398,2246
Bayview Correctional Facility,40.746019,-74.006901,165
Beacon,41.514268,-73.969829,168
Beadle County Regional Corrections Center,44.362306,-98.221574,26
Beaufort County Detention Center,32.438365,-80.686728,195
Beaufort County Jail,35.544096,-77.054572,89
Beaumont Low Security,29.968926,-94.073618,1986
Beauregard Parish Jail Complex,30.841891,-93.282359,166
Beaver Community Work Center,36.815628,-100.52159,12
Beaver County Jail,38.243283,-112.656089,14
Beaverhead County Jail,45.215632,-112.634274,5
Becker County Jail,46.816587,-95.846095,34
Beckley Correctional Center,37.78285,-81.171431,78
Bedford City Jail,32.842855,-97.132118,33
Bedford County Jail,35.484031,-86.460381,112
Bedford County Jail,37.337445,-79.508861,93
Bedford County Police Department,35.485345,-86.466067,64
Bedford Heights City Jail,41.404636,-81.494435,60
Bedford Hills,41.239111,-73.680765,780
Bee County Jail,28.406223,-97.730093,123
Behavior Management Systems,44.090848,-103.226859,78
Behavioral Systems Southwest- Tuscon CCC,32.135901,-110.95668,40
Beje Clark Residential Center,43.139695,-93.212214,47
Bell Center,39.960247,-82.977951,28
Bell County Forestry Camp,36.667859,-83.836387,298
Bell County Jail,36.762106,-83.696839,92
Bell County Law Enforcement Center,31.04211,-97.481921,677
Bellamy Creek Correctional Facility,42.975781,-85.103854,1843
Bellingham Work Release,48.745868,-122.477807,22
Belmont C.I.,40.08049,-80.978641,2692
Beloit Juvenile Correctional Facility,39.458644,-98.108367,12
Beltrami County Jail,47.47418,-94.881979,87
Ben Hill County Jail,31.698068,-83.257693,110
Benbrook Police Jail,32.678123,-97.451575,2
Benewah County Jail,47.314786,-116.567748,5
Benton County Detention Facility,36.337132,-94.472333,46
Benton County Jail,34.831749,-89.185586,9
Benton County Jail,36.057614,-88.097782,43
Benton County Jail,38.241918,-93.380002,18
Benton County Jail,40.617226,-87.315668,21
Benton County Jail,45.66853,-93.909635,58
Benton County Jail,46.223082,-119.217712,663
Benton Unit,34.519085,-92.652044,248
Benzie County Jail,44.625263,-86.092229,50
Bergen County Jail,39.997792,-74.791232,343
Bergen County Jail And Annex,40.873217,-74.03791,687
Bergen County Jail And Annex,40.876257,-74.038839,45
Bergin Correctional Institution,41.815564,-72.300247,1017
Berkeley County Detention Center,33.204383,-80.021486,336
Berks County Jail,40.386579,-76.01716,1078
Berkshire County Jail and House of Correction,42.486039,-73.209817,352
Bernalillo County Metropolitan Detention Center,35.08974,-106.651259,603
Berrien County Jail,31.194409,-83.263528,61
Berrien County Jail,42.110135,-86.476544,410
Berrydale Forestry Camp,30.908586,-87.021865,128
Bertie-Martin Regional Jail,35.962136,-76.935591,130
Berwick Police Department,29.693504,-91.218099,10
Bessemer City Jail,33.397331,-86.954176,47
Bethel Work Release Program,46.777618,-92.11018,45
Bi-State Justice Building:Adc Regional Corrections Center,33.419049,-94.045174,705
Bibb Correctional Facility,32.925245,-87.164289,2007
Bibb county Law Enforcement Center,32.829938,-83.636682,889
Bienville Parish Jail,32.547137,-92.925466,44
Big Horn County Detention Center,44.381829,-108.04046,45
Big Horn County Jail,45.731875,-107.607848,29
Big Muddy River Correctional Center,38.142079,-88.906198,1844
Big Pine Key Road Prison,24.672506,-81.359782,62
Big Sandy Regional Detention Center,37.826326,-82.826816,231
Big Sandy USP and Camp,37.735603,-82.611491,1579
Bingham County Jail,43.196144,-112.341866,115
Birmingham City Jail,33.496171,-86.821017,155
Birmingham Work Release Center,33.53123,-86.808394,280
Bishop Lewis House Work Release,47.605934,-122.327377,58
Black River Correctional Center,44.356536,-90.656547,98
Blackburn Correctional Complex,38.115301,-84.538999,568
Blackfeet Adult Detention Center,48.56225,-113.013344,22
Blackford County Jail,40.451325,-85.277752,91
Bladen Correctional Center,34.67592,-78.540523,163
Bladen County Jail,34.628122,-78.605674,64
Blaine County Jail,35.84598,-98.411246,33
Blaine County Jail,48.48206,-108.757381,10
Blair County Prison,40.428497,-78.391621,275
Blanco County Jail,30.277212,-98.411449,2
Bleckley County Jail,32.415041,-83.35306,51
Bleckley County Probations Center,32.41597,-83.378012,122
Bledsoe County Jail,35.601353,-85.187681,17
Blount County Correctional Facility,33.932539,-86.490029,129
Blount County Jail,35.754267,-83.957699,341
Blue Earth County Jail,44.16156,-93.936679,72
Blue Ridge Regional Jail Authority,37.41265,-79.145115,535
Blythe City Jail,33.6131,-114.597931,85
Boaz City Jail,34.195936,-86.164826,13
Bobby Joe Whitworth Probation Detention Center,34.313391,-82.937663,420
Bogalusa City Jail,30.784391,-89.858816,39
Bolduc Correctional Facility,44.070413,-69.216811,178
Bolivar County Regional Correctional Facility,33.774982,-90.816273,403
Bollinger County Jail,37.305557,-89.970856,9
Bon Homme County Jail,42.993889,-97.86617,1
Bond County Jail,38.88829,-89.412925,6
Bonner County Jail,48.308977,-116.56126,95
Bonneville Community Correctional Center,40.743447,-111.954475,69
Bonneville County Jail,43.514271,-112.015973,245
Boone County Jail,39.006796,-92.3146,176
Boone County Jail,39.033678,-84.725306,379
Boone County Jail,40.033059,-86.449512,137
Boone County Jail,41.6913,-98.001825,2
Boone County Jail,42.264947,-88.844779,71
Boone County Law Enforcement Center,36.169047,-93.028924,72
Boone County Work Camp,39.041858,-84.733322,53
Boonville Correctional Center,38.974064,-92.728411,1043
Boonville Correctional Center,38.977046,-92.73102,239
BOP: Big Springs Correctional Center,32.218774,-101.501011,1080
BOP: Big Springs Correctional Center,32.226217,-101.509441,1722
BOP: Carswell Federal Prison,32.782375,-97.411545,1606
BOP: FCI Fort Worth,32.679828,-97.287635,1641
BOP: FCI Petersburg,37.957642,-76.670281,1164
BOP: FCI Seagoville,32.655107,-96.567345,1781
BOP: FCI Three Rivers,28.423926,-98.313908,967
BOP: Giles W. Dalby Correctional Institution,33.202154,-101.375136,1995
Bosque County Jail,31.922385,-97.658018,31
Bossier City Jail,32.525863,-93.708578,60
Bossier Corrections,32.82943,-93.730211,250
Bostick State Prison,33.044235,-83.22038,347
Boston Pre-Release Center,42.291171,-71.101253,193
Botetourt County Jail,37.501503,-79.87508,98
Bottineau County Jail,48.828238,-100.450543,9
Boulder County Jail,40.034011,-105.228979,426
Boundary County Jail,48.695773,-116.314109,20
Bourbon County Jail,38.219515,-84.244972,124
Bowie-County of Texarkana-Adult Probation Department,33.42066,-94.043337,94
Box Butte County Jail,42.099684,-102.870079,11
Box Elder County Jail,41.506928,-112.037831,116
Boyd County Detention Center,38.415309,-82.598423,182
Boyer Road and Carson City Correctional Facilities,43.155202,-84.868386,2492
Boyle County Detention Center,37.627033,-84.786844,210
Bradford County Jail,29.953922,-82.109888,97
Bradley County Justice Center,35.13822,-84.879074,356
Branchville Correctional Facility,38.151443,-86.600003,1322
Brazoria County Jail,29.239048,-95.404393,810
Brazos County Jail,30.67391,-96.370556,184
Brazos County Minimum Security,30.67511,-96.400155,350
Breckinridge County Jail,37.790803,-86.481013,200
Brevard correctional Institution and Work Camp,28.443295,-80.780807,1020
Brevard County Detention Center,28.453764,-80.789091,1605
Brewster County Jail,30.359726,-103.664611,36
Bridge Halfway House,43.063384,-87.975637,89
Bridgeport Correctional,41.190363,-73.200564,910
Bridges of Jacksonville Work Release Center and Jacksonville Community Service Center,30.352606,-81.734207,134
Bridges of Pompano- Work Release Center,26.22927,-80.13045,201
Bridgewater State Hospital,41.942369,-70.955364,1010
Bridgeway,36.882085,-97.054343,127
Brinkley City Jail,34.887622,-91.193698,3
Briscoe Unit,28.659997,-99.189627,1253
Bristol City Jail,36.596954,-82.180665,124
Broad River and Kirkland Correctional Institutions,34.071102,-81.094723,4583
Broadwater County Jail,46.3217,-111.515868,25
Brookings County Jail,44.308473,-96.79445,20
Brooklyn CCC,40.695822,-73.942044,93
Brooklyn City Jail,41.437465,-81.739724,3
Brooklyn Correctional Institution,41.784071,-71.953256,458
Brooklyn House of Detention,40.689177,-73.989674,8
Brooklyn Metropolitan Detention,40.659965,-74.003892,2089
Brooks County Jail,27.22526,-98.141776,16
Broome County Jail,42.131278,-75.906115,476
Broward Correctional Institution,26.047574,-80.419356,731
Broward County- Joseph V. Conte Facility and North Broward Bureau,26.25315,-80.158011,2970
Broward County- Main Jail Bureau,26.115519,-80.142978,1291
Broward Transitional Center (Federal Immigration),26.279574,-80.146599,619
Brown County Jail,38.875323,-83.897849,68
Brown County Jail,39.852388,-95.53822,14
Brown County Jail,44.311084,-94.461986,17
Brown County Jail,45.464642,-98.48655,44
Brown County Jail and Work Release Center,44.519406,-87.927108,449
Brown County Jail- Huber Law Center,44.512945,-88.014427,246
Brownstone Work Release,47.653782,-117.412318,75
Brule County Jail,43.807508,-99.334222,14
Brunswick Correctional Center,36.784673,-77.814199,132
Brunswick County Jail,34.057297,-78.164337,254
Brunswick County Jail,36.757492,-77.847722,47
Bryan County Jail,33.993383,-96.379797,94
Bryan Federal Prison Camp,30.678146,-96.360619,824
Buchanan County Jail,39.769419,-94.854255,161
Buchanan County Jail,39.773342,-94.818449,45
Buckingham Correctional Center,37.566442,-78.474351,1075
Buena Vista Correctional Facility,38.810216,-106.116029,1235
Buffalo Correctional Facility,42.926497,-78.551404,121
Buffalo County Jail,40.689428,-99.082718,96
Buffalo County Jail,44.335348,-91.916103,27
Buffalo Federal Detention Center,43.019834,-78.201508,612
Buffalo Halfway House,42.911817,-78.860986,44
Bullitt County Jail,37.971544,-85.711909,265
Bullock Correctional Facility,32.14952,-85.682678,1495
Bullock County Correctional Institution and Bulloch County Jail,32.472692,-81.763253,505
Bullock County Jail,32.145375,-85.717086,32
Bullock County Work Release Center,32.153323,-85.721204,1
Buncombe County Jail,35.595883,-82.547751,446
Bureau County Jail,41.366517,-89.465635,18
Burke County Jail,33.076565,-81.995892,115
Burke County Jail,35.745522,-81.685228,44
Burke/ Catawba Detention Facility,35.724732,-81.679565,156
Burleigh County Detention Center,46.807494,-100.783829,109
Burleson County Jail,30.546477,-96.680914,38
Burnett County Law Enforcement Center,45.822688,-92.366688,29
Burruss Boot Camp,33.061806,-83.974784,200
Burruss Correctional Training Center,33.05893,-83.969521,580
Butler ASATC and Feeder,43.221174,-76.726354,162
Butler County Jail,31.827604,-86.617059,38
Butler County Jail,36.757208,-90.392223,79
Butler County Jail,37.225409,-86.682939,54
Butler County Jail,39.389164,-84.555773,707
Butler County Jail,41.253363,-97.129423,30
Butler County Prison,40.859545,-79.897348,205
Butler Minimum Male,43.219171,-76.725486,70
Butner Federal Correctional Complex,36.132588,-78.791595,955
Butner Federal Correctional Complex,36.153173,-78.794563,4597
Butte County Jail,39.528715,-121.573425,557
Butte County Jail,43.635896,-113.302888,2
Butte-Silver Bow Co. Det Center,46.015579,-112.538672,64
Butts County Detention Center,33.302134,-83.948451,98
C. Paul Phelps Correctional Center,30.500792,-93.43348,921
Cabarrus Correctional Center,35.409458,-80.579066,256
Cabarrus County Jail,35.40583,-80.3927,196
Cabarrus County Jail,35.408167,-80.575885,88
Cabot City Jail,34.973789,-92.016693,3
Cache County Jail,41.739888,-111.870033,294
Caddo Correctional Center,32.536347,-93.78263,1524
Caddo County Jail,35.074308,-98.246153,89
Calaveras County Jail,38.190908,-120.666857,74
Calcasieu Correctional Center and Sherrif's Prison,30.21803,-93.134635,1167
Caldwell Correctional Center,35.855651,-81.522036,238
Caldwell County Jail,29.877146,-97.656756,171
Caldwell County Jail,35.889915,-81.57278,193
Caldwell County Jail,37.109498,-87.880931,31
Caldwell County Jail,39.640682,-94.041917,118
Caldwell Parish Detention Center,32.034677,-92.135876,462
Caldwell Parish Jail,32.105396,-92.074784,40
Caledonia Correctional Institution,36.301164,-77.455017,566
Calhoun Correctional Institution,30.40478,-85.062615,1626
Calhoun County Jail,28.612902,-96.626141,48
Calhoun County Jail,30.443413,-85.042876,39
Calhoun County Jail,31.538878,-84.599952,20
Calhoun County Jail,33.540216,-92.470009,27
Calhoun County Jail,33.652401,-85.833592,409
Calhoun County Jail,33.935738,-89.341166,25
Calhoun County Jail,39.157174,-90.618512,2
Calhoun County Jail,42.316481,-85.17652,573
Calhoun State Prison,31.539935,-84.615418,4
Calhoun State Prison,31.544453,-84.625803,1621
California Correctional Center,40.407304,-120.510247,4050
California Correctional Institution,35.111123,-118.567108,5903
California Institute for Men,33.978728,-117.660982,2843
California Institute for Men and Prado Conservation Camp,33.991733,-117.677332,1932
California Institution for Women,33.948408,-117.634972,2082
California Medical Facility,38.328075,-121.977293,2695
California Men's Colony,35.323503,-120.693285,6428
California Rehabilitation Center,33.921906,-117.568113,4316
Calipatria State Prison,33.165472,-115.484688,4164
Callahan County Jail,32.39491,-99.394603,5
Callaway County Jail,38.847416,-91.931818,82
Calloway County Jail,36.613565,-88.300207,138
Calumet County Jail,44.03529,-88.168904,39
Calvert County Detention Center,38.537195,-76.625246,261
Cambria County Prison,40.48867,-78.687854,429
Camden County Correctional Facility,39.943912,-75.123656,1742
Camden County Jail,38.007878,-92.74589,104
Camden County Public Safety Facility,30.967373,-81.721281,184
Cameron County Jail,25.9076,-97.495039,186
Camille Graham Women's Correctional Institution,34.061846,-81.100027,404
Camp Branch,41.961708,-84.99542,231
Camp Cassidy Lake Special Alternative Incarceration,42.357355,-84.095647,202
Camp Georgetown,42.73128,-75.782856,148
Camp Lejeune Military Jail,34.664739,-77.324795,161
Camp Pugsley,44.542121,-85.4256,1329
Camp Sheridan,45.087218,-123.385499,443
Camp Tuscola,43.429972,-83.452832,153
Campbell County Adult Detention,37.277434,-79.102778,140
Campbell County Detention Center,44.278177,-105.511449,107
Campbell County Jail,36.330481,-84.184217,134
Campbell County Jail,39.088987,-84.496451,512
Canadian County Jail,35.535457,-97.955463,74
Candler County Jail,32.393156,-82.045206,37
Cannon County Jail,35.832062,-86.071161,56
Canteen Correctional Services: Big Spring,32.223252,-101.504384,566
Canyon County Jail,43.665612,-116.68118,719
Cape Girardeau City Jail,37.303452,-89.526744,21
Cape Girardeau County Jail,37.38475,-89.667892,33
Cape May County Jail,39.112446,-74.766811,248
Cape Vincent,44.198713,-76.189452,804
Capitol Bail Bonds,29.765501,-95.369904,276
Carbon County Jail,39.600297,-110.815012,93
Carbon County Jail,41.793382,-107.22107,56
Caribou County Jail,42.655457,-111.592183,47
Carlin Conservation Camp,40.733208,-116.08871,112
Carlton Colwell Probation Detention Center,34.87789,-83.944534,173
Carlton County Jail,46.668781,-92.41908,46
Carnegie City Jail,35.106831,-98.604596,1
Caroline County Jail,38.887953,-75.833857,101
Carroll County Correctional Institution,33.579013,-85.048159,216
Carroll County Detention Center,38.677156,-85.173335,137
Carroll County Detention Center,39.573087,-76.987058,234
Carroll County Jail,33.568795,-85.046909,560
Carroll County Jail,36.02061,-88.377241,99
Carroll County Jail,36.365995,-93.544938,95
Carroll County Jail,40.571374,-81.084461,17
Carroll County Jail,40.584682,-86.676447,39
Carroll County Jail,42.100882,-89.978318,22
Carroll/Montgomery Region Correct Center,33.410163,-89.762575,279
Carson City Jail,39.163882,-119.759939,144
Carson County Jail,35.345769,-101.381641,6
Carter County Jail,34.302024,-97.017965,91
Carter County Jail and Workhouse,36.348258,-82.209169,188
Carteret Correctional Center,34.782936,-76.848746,286
Carteret County Jail,34.719223,-76.661671,114
Carver Correctional Center,35.462597,-97.563536,275
Carver County Jail,44.786841,-93.586589,90
Caryville Work Camp,30.767682,-85.807628,154
Casa Grande Transitional Housing,36.085408,-115.192197,174
Cascade County Regional Prison,47.465808,-111.377781,243
Casey County Jail,37.320971,-84.947972,311
Casper Re-Entry Center (CRC),42.892191,-106.491677,254
Cass County Jail,33.020321,-94.37169,82
Cass County Jail,38.647389,-94.369191,89
Cass County Jail,40.755003,-86.36695,177
Cass County Jail,41.011681,-95.883214,90
Cass County Jail,41.91756,-86.019072,114
Cass County Jail,46.869425,-96.833383,168
Cass County Jail,47.101367,-94.579115,15
Cassia County Jail,42.534839,-113.79128,134
Castro County Jail,34.550371,-102.311761,14
Caswell Correctional Center,36.418897,-79.343352,479
Caswell County Jail,36.406456,-79.335193,22
Catahoula Correctional Center,31.771216,-91.851267,778
Catahoula Parish Jail,31.771576,-91.821689,15
Catalyst Behavioral Services- Cameo,35.475679,-97.520258,40
Catalyst Behavioral Services- Ivanhoe,35.476725,-97.520236,97
Catawba Correctional Center,35.615746,-81.209628,192
Catawba County Detention Facility,35.659911,-81.23433,214
Catawba Pre-Release Center,34.894371,-81.092236,188
Catoosa County Jail,34.92911,-85.133994,181
Catron County Jail,33.691036,-108.767855,3
Cattaraugus County Jail,42.252906,-78.801405,111
Cayuga,42.717934,-76.404611,1031
Cayuga County Jail,42.984103,-76.544508,160
CC Taylor,37.783573,-122.411681,199
CCA Eden Detention Center,31.217867,-99.833909,1556
CCA: Houston Processing Center,29.948771,-95.309347,847
CCA: Laredo Processing Center,27.529451,-99.447335,221
CCA: T Don Hutto Corrections Center,30.564413,-97.421899,491
CCM Seattle,47.307749,-122.230424,30
Cecil A Moore Law Enforcement Center,33.720302,-82.723389,51
Cedar County Jail,37.69809,-93.796523,7
Cedar County Jail,42.620089,-97.263999,4
Cedar Creek Correctional Center,46.884568,-123.140933,477
Centennial Correctional Facility,38.437936,-105.151344,308
Centinela State Prison,32.793561,-115.775726,193
Centinela State Prison,32.805209,-115.775557,4311
Central Arizona Correctional Facility,33.037641,-111.374183,1254
Central California Women's Facility,37.091812,-120.156229,3752
Central County Jail (Polk County Sheriff),27.880333,-81.823379,772
Central Detention Center,34.102888,-117.27113,1659
Central Florida Reception Center,28.46191,-81.154146,2378
Central Laundry Facility,39.377362,-76.962006,494
Central Maine Pre-Release Center,44.292137,-69.7978,48
Central Mississippi Correctional Facility,32.236125,-90.079378,3256
Central New Mexico Correctional Facility and Minimum Unit,34.769807,-106.753045,601
Central New Mexico Correctional Minimum Restricted,34.782248,-106.767065,605
Central Prison,35.777419,-78.655344,870
Central Probation Detention Central,32.33652,-83.050931,184
Central Regional Jail,38.701337,-80.64805,267
Central State Prison,32.784127,-83.742369,890
Central Utah Correctional Facility (aka Gunnison Prison),39.162681,-111.811102,1512
Central Virginia Regional Jail,38.229244,-78.115917,379
Centralia Correctional Center,38.553902,-89.1919,1547
Centre County Prison,40.879448,-77.776717,274
Century Correctional Institution,30.961683,-87.29693,1636
Chaffee County Jail,38.537783,-105.998025,63
Chain O'Lakes Correctional Facility,41.343531,-85.367599,149
Challam Bay Corrections Center,48.242567,-124.292524,896
Challam County Correctional Facility,48.117452,-123.430953,109
Chamberlain Creek Conservation Camp,39.354637,-123.556515,108
Chambers County Detention Facility,32.899303,-85.406837,137
Champaign County Correctional Center,40.109301,-88.182794,168
Champaign County Jail,40.113005,-88.205651,67
Chariton County Jail,39.428832,-92.939305,6
Charles County Detention Center,38.521104,-76.986784,418
Charles E. Johnson CC,36.806454,-98.632436,577
Charles Mix County Jail,43.154115,-98.539591,43
Charleston Correctional Facility,45.0914,-69.09719,125
Charleston Work Release Center,38.34908,-81.627584,66
Charlevoix County Jail,45.309797,-85.262357,51
Charlotte Correctional Center,35.200002,-80.92492,244
Charlotte Correctional Institution,26.800639,-81.908554,1067
Charlotte County Jail,26.90782,-82.003771,536
Charlotte County Jail,37.047352,-78.640611,83
Chase County Jail,38.365737,-96.53783,106
Chateaugay Correctional Facility,44.916992,-74.062149,201
Chatham County Adult Detention Center,32.060847,-81.168176,1632
Chatham County Jail,35.718645,-79.18165,47
Chattooga County Jail,34.480189,-85.34871,84
Chautauqua County Jail,42.254307,-79.503565,259
Chaves County Adult Detention Center,33.352544,-104.504719,204
Cheatham County Criminal Justice Center,36.274679,-87.063602,111
Cheboygan County Jail,45.630054,-84.478858,77
Chelan County Regional Jail,47.422195,-120.317594,300
Chemung County Jail,42.09094,-76.801474,204
Chenango County Jail,42.511281,-75.546475,87
Cherokee County Detention Center,34.153452,-85.676614,80
Cherokee County Detention Center,35.07266,-81.644025,79
Cherokee County Jail,34.199001,-84.47781,553
Cherokee County Jail,35.102004,-84.029051,108
Cherokee County Jail,35.938306,-94.999657,95
Cherry County Jail,42.875439,-100.551465,3
Chesapeake City Jail,36.719856,-76.253921,1035
Cheshire Correctional Institution,41.522803,-72.897829,1492
Chester County Detention Center,34.709895,-81.224993,104
Chester County Jail,35.441369,-88.640183,23
Chester County Prison,39.909,-75.659074,894
Chesterfield County Jail,37.378442,-77.508022,366
Cheyenne County Jail,38.820955,-102.349171,1
Cheyenne County Jail,41.14333,-102.977286,7
Cheyenne Mountain Re-entry Center,38.780546,-104.777235,704
Chicago MMC,41.876295,-87.630223,609
Chickasaw City Jail,30.766916,-88.074276,5
Chickasaw County,33.923217,-89.024622,70
Childersburg Work Release Center,33.364952,-86.329689,546
Childress County Jail,34.422725,-100.192944,34
Chillicothe Correctional Center,39.831042,-93.533288,968
Chillicothe Correctional Institution,39.373395,-83.005728,2906
Chilton County Jail,32.837951,-86.622934,171
Chippewa County Jail,44.940787,-91.395878,141
Chippewa County Jail,44.950896,-95.714386,12
Chippewa County Jail,46.497893,-84.345355,109
Chippewa Valley Correctional Treatment Facility,44.929498,-91.348595,485
Chisago County Jail,45.401979,-92.821632,40
Chittenden Regional Correctional Facility,44.446483,-73.206649,166
Choctaw County Jail,32.088381,-88.223068,34
Choctaw County Jail,34.009189,-95.50943,44
Chouteau County Jail,47.816783,-110.672443,5
Chowan County Jail,36.060264,-76.607699,23
Christian County Jail,36.86823,-87.490641,533
Christian County Jail,37.019594,-93.205436,91
Christian County Jail,39.547865,-89.298051,43
Churchill County Jail,39.476819,-118.782188,40
CI California City,35.154323,-117.858642,2614
Cibola County Correctional Center,35.182404,-107.907214,1255
Cimarron Correctional Facility,35.944053,-96.781668,652
Cimarron County Jail,36.729668,-102.513112,4
Citrus County Detention Facility - C.c.a.,28.835687,-82.481599,521
City of Faith Community Correction Center,34.73664,-92.342431,82
City of Faith Prison Ministries,32.485904,-92.108909,16
City of San Antonio: Police Department,29.423537,-98.496897,631
Claiborne County Jail,36.441272,-83.577273,182
Clara Waters Community Corrections Center,35.575005,-97.449028,268
Clare County Jail,44.018514,-84.80443,114
Claremont Custody Center,36.173245,-120.359142,478
Clarendon County Jail,33.692394,-80.204288,92
Clarinda Correctional Facility,40.758495,-95.03497,975
Clark County Detention,37.992845,-84.178722,179
Clark County Detention Center,36.168047,-115.146549,3557
Clark County Jail,34.118449,-93.051686,43
Clark County Jail,38.277574,-85.737137,381
Clark County Jail,39.391626,-87.697176,6
Clark County Jail,39.926489,-83.809708,201
Clark County Jail,40.424869,-91.718757,6
Clark County Jail,44.560324,-90.593149,74
Clark County Jail,45.630347,-122.678166,727
Clark/Frederick/Winchester Regional Adult Facility,39.199055,-78.146118,519
Clarke County Jail,31.702653,-87.780842,100
Clarke County Jail,32.0421,-88.734415,48
Clarke County Jail,33.948158,-83.327592,431
Clay County Detention Center,37.133833,-83.757122,278
Clay County Detention Center,39.245425,-94.419889,294
Clay County Jail,30.003198,-81.686556,468
Clay County Jail,33.269292,-85.856843,76
Clay County Jail,33.815194,-98.196853,25
Clay County Jail,36.380773,-90.193495,71
Clay County Jail,36.550685,-85.508469,20
Clay County Jail,38.772653,-88.498836,6
Clay County Jail,39.521107,-87.094568,76
Clay County Jail,40.521243,-98.05398,5
Clay County Jail,42.779925,-96.935775,9
Clay County Jail,46.884242,-96.764243,54
Clayton County Jail,33.507347,-84.359893,1776
Clayton County Prison,33.446889,-84.307663,215
Clayton Transitional Center and Clayton Diversion Center,33.622814,-84.390791,329
Clear Creek County Jail,39.703168,-105.701166,66
Clearwater County Jail,46.480103,-116.25509,14
Clearwater County Jail,47.524429,-95.399229,19
Cleburne County Jail,33.649724,-85.588572,91
Cleburne County Jail,35.480862,-92.051232,80
Clermont County Jail,39.0914,-84.178659,304
Cleveland Correctional Center,35.286561,-81.543557,83
Cleveland County,35.290656,-81.535406,108
Cleveland County Detention Center,35.219815,-97.441676,280
Cleveland House of Correction,41.446099,-81.524643,222
Cliff Skeen Community Based Correctional Facility for Women,41.057956,-81.515487,43
Clinch County Jail,31.038071,-82.749906,29
Clinton,44.723511,-73.721562,2058
Clinton,44.724599,-73.717044,757
Clinton County Jail,36.691328,-85.133302,28
Clinton County Jail,38.609703,-89.368311,52
Clinton County Jail,39.429716,-83.794687,59
Clinton County Jail,40.279213,-86.508931,180
Clinton County Jail,41.154609,-77.343065,326
Clinton County Jail,42.990419,-84.536763,176
Clinton County Jail,44.725131,-73.466045,234
Cloud County Jail,39.568972,-97.660135,14
Coahoma County Jail,34.212733,-90.575455,82
Coastal State Prison,32.138307,-81.186978,1621
Coastal Transitional Center,32.077511,-81.113738,258
Cobb County Sheriff's Office Jail and Prison Unit,33.908079,-84.577741,2085
Cobb County Work Release Center,33.90962,-84.579926,258
Cochise County jail,31.433625,-109.87007,206
Cochise County Jail,32.249356,-109.83637,4
Cochran County Jail,33.725779,-102.759784,4
Cocke County Jail,35.96707,-83.184394,22
Cocke County Jail Annex,35.967741,-83.184422,49
Coconino County Jail,35.187605,-111.641117,510
Coconino County Jail,35.189166,-111.640757,28
Codington County Detention Center,44.898574,-97.11438,57
Coffee Correctional Facility- CCA,31.527581,-82.638502,1893
Coffee County Jail,31.507352,-82.852136,264
Coffee County Jail,35.477933,-86.084648,216
Coffey County Jail,38.193749,-95.743152,6
Coffield Unit,31.789424,-95.893118,3766
Colbert County Jail,34.732877,-87.704275,77
Cole County Jail,38.574934,-92.168905,36
Coles County Jail,39.493348,-88.173873,105
Colfax County jail,36.870467,-104.431566,49
Collier County,26.125793,-81.76366,863
Collin County Jail,33.245879,-96.631295,1015
Collingsworth County Jail,34.855666,-100.210412,7
Collins Correctional Facility,42.491444,-78.93638,960
Colorado Correctional Center (Camp George West),39.737402,-105.17433,150
Colorado County Jail,29.700632,-96.572201,61
Colorado Territorial Correctional Facility,38.440632,-105.249724,945
Colquitt County Correctional Institution,31.142145,-83.707209,189
Colquitt County Jail,31.181412,-83.760934,217
Columbia Correctional Institution,30.191201,-82.500239,2511
Columbia Correctional Institution,43.566853,-89.490075,818
Columbia County Detention Center,30.220687,-82.643725,241
Columbia County Detention Center,33.540913,-82.302554,261
Columbia County Jail,33.264058,-93.266339,54
Columbia County Jail,42.249689,-73.756238,107
Columbia County Jail,43.544868,-89.449756,211
Columbia County Jail,46.321245,-117.978533,7
Columbia River Correctional Institutio,45.585744,-122.637246,561
Columbiana County Jail - Civigenics,40.777225,-80.843272,121
Columbus Correctional Center,34.279047,-78.721208,691
Colusa County Jail,39.20563,-122.003083,45
Comal County Jail,29.678277,-98.152411,246
Comanche County Jail,34.604611,-98.396005,293
Comcor Inc. Community Corrections,38.890394,-104.8219,253
Comm Corr Center,39.094812,-94.573478,142
Community Alcohol Drug Ctr/Stepping Stone,43.70016,-98.037909,103
Community Alternatives,44.028799,-103.199252,154
Community Based Residential Treatment Center,41.067894,-92.405693,57
Community Correctional Center - Lincoln; Diagnostic and Evaluation Center; Lincoln Correctional Center,40.790066,-96.761201,1212
Community Corrections Center,41.284003,-95.90064,150
Community Transitions Center,39.703328,-82.600209,77
Community Work Center,33.844269,-91.025549,92
Comprehensive Sanction Center,33.768146,-84.519633,140
Concordia Parish Work Release Facility,31.594134,-91.510505,143
Conecuh County jail,31.436502,-86.953061,45
Conejos County Jail,37.082715,-105.994389,24
Contra Costa County,38.017716,-122.132208,589
Contra Costa West County Detention Facility,38.026152,-121.934834,84
Converse County Jail,42.760203,-105.380563,30
Conway Human Development Center,35.101829,-92.425144,505
Coolidge House,42.341204,-71.088018,81
Cooper Street Correctional Facility,42.295968,-84.397079,1717
Coosa County Jail,32.889657,-86.221034,80
Corcoran State Prison,36.061504,-119.548599,5298
Cordova Center,61.220646,-149.882336,96
Corinth City Jail,34.936382,-88.521269,19
Cornell Correctional Center,32.223585,-101.520823,1478
Correctional Alternative Placement Services,40.513319,-107.552539,35
Correctional Industrial Facility,39.978036,-85.772166,1462
Corrigan-Radgowski Correctional Center,41.446773,-72.11155,1511
Cortland County Jail,42.599038,-76.176598,63
Coryell County Jail,31.433603,-97.751131,84
Coshocton County Jail,40.275695,-81.866052,50
Cottonwood County Jail,43.863939,-95.118743,13
Cottonwood Treatment Center,40.707191,-111.919802,168
Coulumbus County Detention Center,34.336252,-78.713439,199
Country Meadows,40.816325,-96.685893,52
County Jail,44.079139,-88.548624,331
County Jail #8 and #9,37.775375,-122.404418,1210
County of Bexar: Mental Impairment Offender Facility,29.298893,-98.553248,206
County of Smith: Jail Food Services,32.351242,-95.300074,45
County of Travis: State Jail,30.270541,-97.64198,1105
Covington County Jail,31.311029,-86.503517,172
Covington County Jail,31.645192,-89.553869,3
Coweta County Jail,33.381577,-84.785865,377
Cowley County Jail,37.239846,-96.993949,106
Coxsackie,42.346801,-73.838329,1015
Coyote Ridge Correctional Center,46.697323,-118.844555,1445
CRAF (Central Reception),40.243285,-74.803036,536
Craggy Correctional Center,35.662373,-82.610171,575
Craig County Jail,36.636931,-95.158513,45
Craighead County Detention Center,35.855869,-90.735894,330
Crane County Jail,31.396614,-102.351888,20
Craven Correctional Institution,35.321988,-77.11332,772
Craven County Jail,35.108815,-77.038675,181
Crawford County Jail,32.721173,-83.995336,15
Crawford County Jail,35.434658,-94.356205,117
Crawford County Jail,37.509238,-94.864485,80
Crawford County Jail,37.966598,-91.356953,84
Crawford County Jail,39.00453,-87.738792,23
Crawford County Jail,40.814753,-82.938609,115
Crawford County Jail,43.054603,-91.145863,24
Creek County Jail,36.03029,-96.096824,323
Cremer Therapeutic Community Center,38.844273,-91.931883,177
Criminal Justice Department: Powledge,31.755302,-95.806755,1133
Crisp County Jail,31.923628,-83.81373,197
Crittenden County Jail,35.17459,-90.189663,299
Crittenden County Jail,37.331893,-88.083567,135
Crook County Jail,44.405517,-104.378801,4
Crosby County Jail,33.658154,-101.239989,8
Cross City Correctional Institution and Work Camp,29.632885,-83.095205,1368
Cross County Criminal Justice Center,35.222546,-90.786428,54
Crossroads Adult Transitional Center,41.872085,-87.707387,323
Crossroads Correctional Center- CCA,48.503153,-111.894162,619
Crossroads Correctional Facility,39.765715,-94.223675,1458
Crow Wing County,46.356112,-94.205953,124
Crowley County Correctional Facility-CSC,38.144081,-103.961381,1652
Crowley County Jail,38.222276,-103.755992,10
Crystal City Detention Center,28.753265,-99.84371,348
CSC - Alston Wilkes Society,34.003689,-81.028219,41
CSP San Quentin,37.940299,-122.490158,4854
CSP Solano,38.320775,-121.975193,5115
Culberson County Jail,31.043639,-104.83043,10
Cullman County Jail,34.172523,-86.841654,228
Culpeper County Jail,38.473836,-77.996766,67
Cumberland County Jail,35.048587,-78.880758,543
Cumberland County Jail,35.942128,-85.023946,143
Cumberland County Jail,39.271932,-88.245972,5
Cumberland County Jail,43.652164,-70.281504,378
Cumberland County Prison,40.214985,-77.161883,411
Currituck County Jail,36.4015,-76.000575,38
Curry County Detention Center,34.406275,-103.205999,276
Curt Forbes Residential Center,42.020912,-93.612856,42
Custer County Jail,35.579592,-98.962255,122
Custer County Jail,41.405059,-99.643458,6
Custer County Jail,44.504753,-114.231257,9
Cuyahoga County Correctional Center,41.501698,-81.696768,2024
D. Ray James Prison,30.833617,-81.969157,1646
Dade County Jail,34.872463,-85.51005,94
Dade County Jail and Residence,37.415395,-93.839966,4
Daggett County Jail,40.988186,-109.761132,63
Dakota County Jail,42.415914,-96.419802,65
Dakota County Jail,44.740537,-92.888968,258
Dakota Women's Correctional and Rehab Center,46.535078,-102.8673,116
Dale County Jail,31.449771,-85.636159,63
Dallam County Jail,36.061846,-102.521259,38
Dallas County Jail,33.81336,-92.398413,139
Dallas County Jail,37.645009,-93.090121,14
Damascus Way,44.987527,-93.352569,16
Dan River Prison Work Farm,36.432566,-79.334829,626
Dane County Jail,43.07153,-89.383569,855
Danville City Jail,36.586258,-79.391459,243
Danville City Prison Farm,36.585272,-79.376394,163
Danville Correctional Center,40.129577,-87.537151,1839
Daphne City Jail,30.595724,-87.892566,38
Darby City Jail,46.022136,-114.17727,3
Dare County Detention Center,35.927769,-75.708419,56
Darke County Jail,40.066984,-84.625606,29
Darlington County Correctional Center,34.299108,-79.923826,180
Dauphin County Prison,40.253283,-76.835736,933
David Wade Correctional Center,32.896048,-93.025932,2767
Davidson Correctional Center,35.813781,-80.227898,370
Davidson County Criminal Justice Center,36.168194,-86.779642,628
Davidson County Jail,35.826285,-80.254678,227
Davie County Jail,35.878062,-80.594771,42
Daviess County Detention Center,37.785585,-87.07393,638
Daviess County Jail,38.658208,-87.171794,191
Daviess/DeKalb Regional Jail,40.078134,-94.106892,122
Davis County Jail,40.980801,-111.904831,578
Davis County Jail Work Center,40.976593,-111.904633,97
Dawes County Jail,42.827187,-103.001618,16
Dawson County Corrections,47.129848,-104.683077,168
Dawson County Jail,34.4217,-84.119811,137
Dawson County Jail,40.780384,-99.740826,95
Day County Jail,45.332697,-97.522277,11
Dayton Correctional Institution,39.730651,-84.258961,497
Daytona Beach Work Release Center,29.137002,-81.123113,84
De Baca County Jail,34.47224,-104.242241,9
De Kalb County Jail,35.960004,-85.81306,84
De Kalb County Jail,41.366127,-85.053936,76
De Kalb County Jail,41.988968,-88.683657,122
De Soto Annex,27.207385,-81.670212,1476
De Soto County Jail,27.216425,-81.856528,167
Deaf Smith County Jail,34.817946,-102.398018,79
Dearborn County Jail,39.090368,-84.851517,248
Decatur ATC,39.875576,-88.927285,112
Decatur City jail,34.606338,-86.983541,129
Decatur Correctional Center,39.894037,-88.926365,501
Decatur County Correctional Institution,30.903951,-84.611866,284
Decatur County Jail,30.906376,-84.601511,146
Decatur County Jail,35.581703,-88.114838,27
Decatur County Jail,39.334884,-85.483473,58
Decatur County Jail,39.819916,-100.528516,2
Decatur Work Release,34.617233,-87.004543,712
Deep Meadow Correctional Center,37.623058,-77.851199,748
Deerfield Correctional Center and Southampton Correctional Center,36.729848,-77.244994,1149
Dekalb County Jail,33.773695,-84.244489,3219
DeKalb County Jail,34.419056,-85.771588,198
Del Norte County Jail,41.753149,-124.200795,99
Delano Comm Corr Fac,35.767313,-119.322309,490
Delaware County Jail,36.420612,-94.798038,62
Delaware County Jail,40.309607,-83.047776,195
Delaware County Jail,42.288192,-74.909796,80
Delaware County Justice Center,40.195002,-85.387057,297
Delaware County Prison,39.902196,-75.514338,1589
Delta Conservation Camp,38.213714,-121.852284,113
Delta Correctional Center,38.694852,-108.162429,459
Delta Correctional Facilitiy,33.492171,-90.158751,954
Delta County Jail,38.739688,-108.072838,48
Delta County Jail,45.771663,-87.066433,81
Delta Regional Facility,33.519538,-91.411427,573
Denmar Correctional Center,38.086529,-80.220042,246
Dent County Jail,37.646382,-91.538902,6
Denton County Detention Center,33.213516,-97.113077,1130
Denver Women's Correctional Facility,39.761483,-104.848875,429
Dermott Police Station,33.528234,-91.435515,5
Desoto County Jail,34.821222,-89.995042,228
DeSoto Parish Detention Center,32.039411,-93.70953,98
Desoto Work Camp,27.205996,-81.662263,288
Deuel Vocational Institution,37.740312,-121.314633,3757
Devil's Garden Conservation Camp,41.533635,-120.673568,116
Dewey County Jail,36.038242,-98.964503,21
DeWitt County Jail,29.092681,-97.288436,64
Dewitt County Jail,40.154081,-88.961693,76
Diamondback Correctional Facility,35.882422,-98.395889,2050
Dick Conner C.C.,36.467601,-96.396269,1182
Dickens County Correctional Center,33.446916,-100.854834,310
Dickens County Jail,33.622357,-100.834953,5
Dickinson County Jail,38.915479,-97.213338,38
Dickinson County Jail,45.816112,-88.063687,76
Dickson County Jail,36.176765,-87.340105,227
Dillon County Detention Center,34.414268,-79.382801,171
Dillwyn Correctional Center,37.574544,-78.470573,1098
Dimmit County Jail,28.510647,-99.801079,29
Dinsmore Work Release Center,30.487108,-81.791934,148
Dinwiddie County Jail,37.074599,-77.589078,55
Dismas Charities Community Corrections Center,36.077376,-79.788454,39
Dismas House Charities Inc,26.054898,-80.14489,76
Dismas House Charities Inc.,26.049637,-80.145521,131
Dismas House of Macon,32.832041,-83.632201,33
Dismas House West,39.286053,-76.643342,39
Ditmas House,38.667273,-90.262629,188
Dixon Correctional Center,41.873626,-89.482087,2249
Dixon Correctional Institute,30.820841,-91.205824,1359
Dixon County Jail,42.56274,-96.708959,8
Dixon Springs Impact Incarceration Program,37.402559,-88.657086,173
Dodge Correctional Institution,43.624797,-88.740322,1608
Dodge County Jail,32.201717,-83.175743,76
Dodge County Jail,43.406784,-88.706774,496
Dodge Department of Corrections,41.433391,-96.498101,44
Dodge State Prison,32.397541,-83.158952,1232
Dominguez State Jail,29.368056,-98.714397,2109
Dona Ana County Detention Center,32.302086,-106.807674,811
Donald Price Medium Security Facility,41.7442,-71.45064,310
Donald W. Wyatt Detention Facility,41.891916,-71.3842,350
Donaldson Correctional Facility,33.508961,-87.176386,1534
Doniphan County Jail,39.785156,-95.090378,9
Donley County Jail,34.937371,-100.890537,9
Dooly County Jail,32.190853,-83.75533,133
Dooly State Prison,32.27906,-83.715581,1764
Door County Jail,44.815988,-87.404538,74
Dorchester County Detention Center,38.549158,-76.05915,140
Dorchester County Jail,33.184869,-80.577511,216
Dorothea Dix Minimum Security Facility,41.739392,-71.467619,82
Dothan City Jail,31.225844,-85.390564,91
Dougherty County Jail,31.593385,-84.119944,829
Douglas County Jail,33.745104,-84.752736,798
Douglas County Jail,36.951144,-92.659151,18
Douglas County Jail,38.938181,-95.194834,141
Douglas County Jail,38.958307,-119.76859,80
Douglas County Jail,39.403242,-104.864367,282
Douglas County Jail,39.790654,-88.29065,16
Douglas County Jail,45.883622,-95.379993,35
Douglas County Jail,45.884217,-95.38148,24
Douglas County Jail,46.721303,-92.097132,157
Douglas Department of Corrections,41.253479,-95.93845,1316
Downeast Correctional Facility,44.630493,-67.394855,151
Downstate,41.533552,-73.942849,1198
Draper / Staton / Elmore prisons,32.57294,-86.327885,2399
Draper / Staton / Elmore prisons,32.589624,-86.33265,1376
Drew County Detention Facility,33.627156,-91.791944,36
Drug Abuse Correctional Center,44.075362,-88.517882,267
Du Page County Jail,41.8693,-88.138192,786
Dublin FCI and Camp,37.718196,-121.899225,1345
Dubois County Jail,38.380817,-86.928353,160
Dubuque Residential Facility,42.508066,-90.663535,89
Duchesne County Jail,40.192378,-110.383568,152
Dukes County Jail and House of Correction,41.392743,-70.521095,30
Dunklin County Jail,36.235227,-90.053984,9
Dunklin County Jail,36.249115,-90.047242,95
Dunklin County Jail,36.260899,-90.045444,34
Dunn County Huber/ Work Release,44.864416,-91.922416,26
Dunn County Jail,44.889295,-91.887956,104
Duplin Correctional Center,34.952907,-77.987332,322
Durango Jail and Estrella Jail and quot;Tent Cityquot; Jail,33.427499,-112.12194,4320
Durham Correctional Center,36.065311,-78.924418,209
Durham County Jail,35.992495,-78.900831,525
Dutchess County Jail,41.711054,-73.921683,357
Dwight Correctional Center,41.095174,-88.476682,1106
Dyer County Jail,36.0302,-89.383919,189
Eagle County Correctional Facility,39.662451,-106.821505,54
Earl Davis Work Center,35.084125,-96.400325,41
Early County Jail,31.363365,-84.92846,47
East Arkansas Regional Unit,34.849892,-90.601938,1679
East Baton Rouge Parish Prison,30.534223,-91.165054,2156
East Boise Community Work Center,43.603242,-116.16342,199
East Carroll Detention Center,32.726178,-91.182472,427
East Cleveland City Jail,41.529052,-81.580732,22
East Mississippi Correctional Facility,32.337935,-88.798727,1257
East Moline Correctional Center,41.535531,-90.419031,1121
East Point City Jail,33.680694,-84.442343,12
Easterling Correctional Facility,31.675857,-85.57815,1320
Eastern Correctional Institution and Annex,38.157226,-75.708621,3240
Eastern Correctional Institution and Greene Correctional Center,35.479706,-77.597864,1105
Eastern Kentucky Correctional Complex,37.902659,-83.272035,1880
Eastern Missouri Correctional Center,38.492458,-90.703226,1082
Eastern NY Correctional Facility,41.741569,-74.361873,1002
Eastern Oregon Correct Institution,45.670786,-118.816807,1605
Eastern Pre-Release Unit,39.12437,-75.995204,167
Eastern Reception Diagnostic and Corr Ctr,37.925099,-90.515413,2570
Eastland County Jail,32.402925,-98.819465,51
Eaton County Jail,42.579702,-84.84583,207
Eau Claire County Jail,44.807954,-91.50414,243
Ector County Correctional Center- Civigenics,31.819684,-102.360816,533
Ecumenical House,30.460569,-91.120784,24
Eddie Warrior Correctional Center and Jess Dunn CC,35.754679,-95.553701,1002
Eddy County Detention Center,32.422084,-104.226696,205
Edgar County Jail,39.613205,-87.695972,33
Edgecombe Correctional Facility,40.836469,-73.938162,121
Edgecombe County Jail,35.907678,-77.585338,234
Edgefield County Jail,33.789256,-81.930797,84
Edinburgh Correctional Facility,39.354279,-86.0401,319
Edmunds County Jail,45.445819,-99.025693,8
Edna Mahan CF for Women,40.629913,-74.927669,1402
Edwards County Jail,30.017065,-100.211101,5
Edwards County Jail,37.925391,-99.414451,5
Eel River Conservation Camp,40.160662,-123.834306,104
Eel River Conservation Camp,40.370619,-123.945064,96
Effingham County Jail,39.12178,-88.54268,66
Effingham County Prison,32.366783,-81.315173,495
El Centro Detention Center,32.802564,-115.567828,418
El Dorado Correctional Facility,37.802993,-96.807647,1267
El Dorado County,38.724118,-120.823695,222
El Monte Center- Cornell Corrections,34.073695,-118.019034,59
El Paso County Detention Facility,31.810936,-106.258027,1915
El Paso County Jail,38.786935,-104.778481,1291
Elayn Hunt Correctional Center,30.269264,-91.080696,1837
Elba Work Release Center,31.414584,-86.084336,241
Elbert County Jail,34.110801,-82.869997,50
Elbert County Jail,39.343209,-104.464642,35
Eleanor Chase House Work Release,47.648649,-117.418578,18
Elk City Community Work Center,35.428769,-99.391556,90
Elk County Jail,37.469519,-96.261623,6
Elk County Jail,40.823141,-115.775543,105
Elkhart County corrections Complex,41.598078,-85.974043,995
Elkhart County Work Release,41.589033,-85.83103,303
Ellis County Jail,32.383549,-96.847157,306
Ellis County Jail,36.134342,-99.770603,5
Ellis Unit,30.881053,-95.457065,2246
Ellsworth Correctional Facility,38.742936,-98.232161,824
Ellsworth County Law Enforcement Center,38.73048,-98.231172,16
Elmira,42.112845,-76.832349,1787
Elmore County Jail,32.559915,-86.195823,240
Elmore County Jail,43.135803,-115.674689,94
Elmwood Correctional Facility,37.418762,-121.908174,2549
Ely State Prison,39.384663,-114.940202,1129
Emanuel County Jail,32.604947,-82.369335,118
Emanuel Probation Detention Center,32.572082,-82.162332,267
Emanuel Transitional Center,32.613308,-82.357419,217
Emmet County Jail,45.375424,-84.953485,76
Enid Community Corrections Center,36.39595,-97.848388,97
Enumclaw City Jail,47.204782,-121.989148,17
Erath County Jail,32.213573,-98.188793,48
Erie CCC,42.131891,-80.090055,94
Erie County Correctional Facility,42.932596,-78.556757,837
Erie County Holding Center,42.884526,-78.87944,868
Erie County Jail,41.422867,-82.687471,94
Erie County Prison,42.124104,-80.067401,622
Escambia County Detention Center,31.107702,-87.072437,163
Esmeralda County Jail,37.705004,-117.2299,1
Essex County Alternative Correctional Center,42.718753,-71.139951,215
Essex County Correctional Center,42.599078,-70.982921,1196
Essex County Jail,44.282591,-73.535173,69
Essex County Women in Transition,42.836955,-70.883434,20
Estill County Jail,37.700296,-83.974787,32
Etowah County Detention Center,34.016408,-86.012089,784
Euclid City Jail,41.598075,-81.523167,57
Eunice City Jail,30.492227,-92.415695,54
Eureka County Jail,39.516827,-115.96229,1
Evans Correctional Institution,34.653536,-79.722028,1583
Evans County Jail,32.161675,-81.907611,18
Everglades Correctional Institution,25.743945,-80.488928,1663
exar County Adult Detention Center,29.428287,-98.506662,4140
Exodus House,44.961699,-92.66011,10
Facility: OSP Youngstown,41.110521,-80.57683,541
Fairbanks Correctional Center,64.83059,-147.753014,299
Fairfax County Adult Detention Center,38.844558,-77.31095,1207
Fairfield City Jail,33.484774,-86.915002,5
Fairfield County Detention Center,34.396791,-81.097303,72
Fairfield County Jail,39.713954,-82.598589,88
Fairhope City Jail,30.524892,-87.90248,17
Fall River County Jail,43.437472,-103.482862,6
Fallon County Jail,46.36039,-104.276146,3
Fannin County Jail,34.864218,-84.327055,55
Faribault County Jail,43.657567,-94.098566,27
Farmington Correctional Facility,37.767768,-90.43921,2623
Farquhar State Cattle Ranch,32.629304,-87.693777,103
Faulk County Jail,45.033825,-99.126428,2
Faulkner County Detention Center,35.088532,-92.443783,107
Fauquier County Jail,38.710995,-77.798557,96
Fayette County Jail,33.441004,-84.451232,287
Fayette County Jail,33.684375,-87.830503,52
Fayette County Jail,35.232593,-89.371931,103
Fayette County Jail,38.960202,-89.099628,42
Fayette County Jail,39.536379,-83.44013,34
Fayette County Justice Center,29.919242,-96.879746,20
FCI and Camp El Reno,35.533327,-98.005167,1465
FCI and Camp Taft,35.109201,-119.38532,2351
FCI Ashland and Camp,38.436053,-82.70472,1551
FCI Beckley and camp,37.800523,-81.129384,2224
FCI Danbury,41.436737,-73.467469,1122
FCI Danbury,41.442258,-73.463117,217
FCI Fairton,39.38508,-75.1606,1251
FCI Forrest City and Camp,34.981693,-90.794356,3814
FCI Fort Dix,39.9987,-74.613327,4665
FCI Gilmer and Camp,38.921001,-80.785827,1773
FCI Greenville,38.866983,-89.409432,1536
FCI Jesup,31.560442,-81.900965,1943
FCI La Tuna and Federal Satellite Low,31.981031,-106.59162,1635
FCI La Tuna Camp,31.991331,-106.603142,293
FCI Loretto,40.496626,-78.621588,983
FCI Manchester and camp,37.173761,-83.781728,1619
FCI McKean,41.795522,-78.68719,1441
FCI Memphis,35.154917,-89.864769,1287
FCI Memphis camp,35.147087,-89.852457,280
FCI Oxford and Camp,43.864609,-89.642427,1266
FCI Safford,32.716498,-109.726893,1286
FCI Sandstone,46.114594,-92.849057,1315
FCI Schuylkill,40.737401,-76.338113,1526
FCI Seagoville camp,32.657172,-96.573778,259
FCI Sheridan,45.083769,-123.385685,1352
FCI Waseca,44.069682,-93.516964,1067
FCI Yazoo Low and FCI Yazoo Med,32.881732,-90.431052,3268
FDC SeaTac,47.418947,-122.301844,831
FDC: Houston,29.758284,-95.360667,881
Federal Correction Institute and Work Camp,30.851586,-85.189379,1477
Federal Correctional Complex Pollock,31.475111,-92.448117,2647
Federal Correctional Institute,30.191514,-97.307761,1492
Federal Correctional Institution Ray Brook,44.287572,-74.095539,374
Federal Correctional Institution Ray Brook,44.291505,-74.095658,848
Federal Detention Center- Miami,25.778504,-80.19293,1599
Federal Prison Camp Duluth,46.83506,-92.197706,772
Federal Prison Industries,33.379444,-94.087413,1671
Felmers O Chaney Correction Center,43.069462,-87.951855,104
Fenner Canyon Conservation Camp,34.386931,-117.763908,100
Fentress County Jail,36.427267,-84.932549,32
Fergus County Jail,47.061978,-109.430386,6
Ferry County Jail,48.649036,-118.734202,24
Fillmore County Jail,40.525041,-97.602853,6
Fillmore County Jail,43.682835,-92.079428,17
Finney County Jail,37.967254,-100.87587,135
Fisher County Jail,32.745693,-100.37727,10
Fishkill,41.520576,-73.955637,798
Fishkill,41.522012,-73.950383,942
Five Points Correctional Facility,42.710345,-76.842518,1341
Flagler Inmate Facility,29.444068,-81.251542,164
Flambeau Correctional Center,45.648396,-90.750927,98
Flathead County Detention Center,48.189633,-114.311216,76
Florence Correctional Center-CCA,33.044438,-111.372423,1704
Florence County Detention Center,34.053032,-79.743922,345
Florence Crane or Lakeland,41.963981,-84.995213,1182
Florence Crane or Lakeland,41.964431,-84.989551,1214
Florence McClure Women's Correctional Center,36.257314,-115.077228,731
Florence West,33.03702,-111.376572,746
Florida State Prison,30.063962,-82.173376,1342
Flowood Restitution and Community Work Center,32.278824,-90.150469,257
Floyd County Jail,34.280491,-85.14148,653
Floyd County Jail,37.665386,-82.771481,154
Floyd County Jail,38.284619,-85.825374,287
Floyd County Prison,34.219359,-85.200732,355
FMC Devens,42.527503,-71.623142,1194
FMC Lexington,38.104558,-84.561628,1742
Folsom State Prison,38.694503,-121.153401,6676
Fond du Lac County Jail,43.774175,-88.449068,301
Forcht-Wade Correctional Center,32.254948,-93.940942,650
Ford County Correctional Facility,40.463094,-88.099194,43
Ford County Jail,37.753106,-100.001497,101
Forest County Community Work Center,31.317678,-89.282137,86
Forest County Jail,45.568386,-88.901858,76
Forest County Jail and Work Release,31.326499,-89.29209,214
Forest State Correctional Institution,41.475596,-79.097501,2179
Forrest County Jail,31.279962,-89.283319,38
Forsyth Correctional Center,36.145598,-80.262125,247
Forsyth County Jail,34.205093,-84.138403,235
Forsyth County Jail,36.097218,-80.242339,768
Fort City Police Department,47.947916,-124.380999,27
Fort Des Moines Correctional Facility and Polk County Work Release Center,41.521265,-93.620909,188
Fort Des Moines Correctional Facility and Polk County Work Release Center,41.521986,-93.622123,31
Fort Dodge Correctional Facility,42.484875,-94.196404,1158
Fort Payne City Jail,34.44012,-85.724121,2
Fort Peck Tribes Jail,48.113676,-105.213074,26
Fort Sill Regional Correctional Facility,34.678563,-98.420727,150
Fountain Correctional Center,35.988482,-77.763882,498
Fountain County Jail,40.135928,-87.398024,21
Four Mile Correctional Center,38.429896,-105.144803,495
Fox Lake Corr. Inst.,43.614927,-88.91194,1353
Fox Valley ATC,41.785498,-88.318289,123
FPC Pensacola,30.463429,-87.338675,660
FPC Yankton,42.88031,-97.390349,864
Francisquito Conservation Camp- SCC,34.538581,-118.504144,74
Frank Lee Youth Center,32.580897,-86.393536,299
Franklin and Correctional Medical; Pre-Release Center,39.926913,-83.013564,596
Franklin City Jail,29.790338,-91.501814,9
Franklin Correctional Center,35.944016,-78.254317,473
Franklin Correctional Institution and Work Camp,29.877164,-84.648924,1420
Franklin County Community-Based Corrections Facility,39.926744,-82.941914,294
Franklin County Corrections Center,39.906617,-83.014589,1350
Franklin County Detention Center,36.092725,-78.331316,153
Franklin County Jail,29.772701,-84.814142,61
Franklin County Jail,31.47207,-90.893058,10
Franklin County Jail,33.18562,-95.2338,29
Franklin County Jail,34.372027,-83.245517,65
Franklin County Jail,34.472579,-87.72879,78
Franklin County Jail,35.173415,-86.132191,122
Franklin County Jail,36.993561,-79.887938,54
Franklin County Jail,37.99734,-88.916035,52
Franklin County Jail,38.61357,-95.267902,40
Franklin County Jail,40.097599,-98.954249,1
Franklin County Jail,44.710659,-70.149274,2
Franklin County Jail,46.237048,-119.095944,178
Franklin County Jail and House of Correction,42.598205,-72.61342,176
Franklin County Regional Jail,38.176731,-84.86254,460
Franklin Parish Detention Center,32.188119,-91.649082,351
Frederick Community Work Cente,34.370489,-99.141129,111
Frederick County Adult Detention Center,39.366205,-77.413016,430
Freeborn County Jail,43.645397,-93.369378,101
Freestone County Jail,31.725728,-96.15997,27
Fremont Correctional Center,40.720569,-111.956329,55
Fremont Correctional Facility,38.422985,-105.155139,1637
Fremont County Jail,42.837184,-108.722038,154
Fremont County Jail,43.967819,-111.684507,14
Fresno County Jail,36.738212,-119.790302,2344
Frontier Correctional Systems,41.133187,-104.817636,85
Frontier County Jail,40.631497,-100.515109,3
Fulton,40.837393,-73.900932,127
Fulton County Detention Center,36.546661,-89.178058,388
Fulton County Jail,33.777727,-84.424563,1894
Fulton County Jail,36.37006,-91.823171,7
Fulton County Jail,40.3976,-90.157254,73
Fulton County Jail,41.065361,-86.212424,71
Fulton County Jail,43.018632,-74.356577,68
Fulton Reception and Diagnostic Center,38.846282,-91.925809,1320
Furnas County Jail,40.138734,-99.827674,2
G Robert Cotton Correctional Facility,42.288088,-84.38833,1951
G.K. Fountain Corr Facility/ J.O. Davis Corr F,31.167081,-87.466881,1890
Ga Diagnostic and Classification Center,33.221201,-84.060927,2007
Gadsden County Jail,30.704714,-84.837123,204
Gage County Jail,40.272215,-96.745958,25
Gaines County Law Enforcement Center,32.719531,-102.641821,20
Gainesville Correctional Institute and Work Camp,29.656928,-82.263219,912
Gallatin County Detention Center,45.673838,-111.059497,49
Gallia County Jail,38.809498,-82.20176,35
Galveston County Jail,29.292592,-94.833098,1002
Garden Grove CCC,33.802146,-117.963391,60
Garfield County Community Corrections,39.547311,-107.326169,103
Garfield County Jail,36.383573,-97.868557,243
Garfield County Jail,37.826889,-112.453082,89
Garfield Heights City Jail,41.411766,-81.600454,14
Garland County Criminal Detention Facility,34.50418,-93.058784,220
Garner Correctional Institution,41.396704,-73.271156,608
Garrett County Jail,39.407468,-79.406517,43
Garvin County Jail,34.740484,-97.222134,27
Gaston Correctional Center,35.307265,-81.205657,238
Gaston County,35.267219,-81.183368,455
Gates Correctional Facility,41.336745,-72.228931,887
Gateways CCC,34.085458,-118.257302,59
Geary County Jail,39.030882,-96.828488,87
Geauga County Jail,41.504894,-81.192143,48
Geiger Corrections Center,47.62187,-117.515065,166
Gem County Jail,43.875122,-116.49424,47
Genesee County Jail,42.998779,-78.188016,69
Genesee County Jail,43.010376,-83.686613,644
Geneva County Jail,31.038819,-85.865465,53
Georgetown County Jail,33.446273,-79.290631,217
Gibson County Jail,35.983332,-88.944828,151
Gibson County Jail,38.357654,-87.566887,178
Gila County jail,33.389084,-110.773542,114
Gilcrist County Jail,29.593554,-82.81605,30
Giles County Jail,35.217758,-87.053547,124
Gillespie County Jail,30.27496,-98.873888,6
Gilmer County Jail,34.649995,-84.447381,113
Gilpin County Jail,39.839329,-105.482187,31
Gist,29.9923,-94.065684,1790
Gist,29.997792,-94.069086,1029
Glacier County Jail,48.632341,-112.326483,11
Glacier Manor,58.35781,-134.493935,99
Glades Correctional Institution,26.717781,-80.674534,672
Glades County Jail,26.856881,-81.182091,506
Glades Work Camp,26.720667,-80.668515,266
Gladwin County Jail,43.973424,-84.489552,66
Glen Helen Rehabilitation Center,34.177334,-117.388777,918
Glenn County Jail,39.51984,-122.200249,83
Glenn Dyer Detention Facility,37.8001,-122.27698,801
Glenwood Center,61.214118,-149.88838,90
Gloria McDonald Awaiting Trial and Medium Security Facility,41.739232,-71.464686,105
Glory House of Sioux Falls,43.508096,-96.742938,28
Glory House of Sioux Falls,43.510496,-96.743684,12
Glossbrenner SAFPF,27.705809,-98.258136,514
Gloucester County,39.840222,-75.14967,363
Gloucester County Jail,37.419094,-76.527733,75
Glynn County Detention Center,31.153915,-81.4964,448
Gogebic County Jail,46.482422,-90.053251,23
Goliad County Jail,28.665363,-97.385453,30
Gonzalez County Jail,29.538913,-97.465952,58
Good Shepherd Manor,38.974355,-83.033069,51
Goodhue County Jail,44.562696,-92.532345,55
Gooding County Jail,42.939063,-114.71222,34
Gooding County Jail Annex,42.937408,-114.712051,1
Goodman Correctional Institute,34.066883,-81.108283,397
Gordon Correctional Center,46.232434,-91.757287,87
Gordon County Jail,34.563905,-84.939626,281
Goshen County Detention Center,42.065523,-104.182313,60
Gouverneur,44.352649,-75.402875,981
Gowanda Correctional Facility,42.487238,-78.935969,1629
Graceville Correctional Facility and Work Camp,30.949627,-85.487717,1874
Grady County Detention Center,30.892348,-84.201797,113
Grady County Jail,35.053318,-97.936155,515
Grady County Work Release Center,35.053278,-97.934401,75
Grafton Correctional Institution and North Cost Treatment Center,41.281021,-82.032066,2084
Graham Correctional Center,39.123272,-89.459637,1894
Graham County Jail,32.834193,-109.718491,131
Graham County Jail,35.323264,-83.805451,6
Grand County Jail,38.574054,-109.547812,22
Grand County Jail,40.07234,-106.1042,33
Grand Forks County Correctional Center,47.934869,-97.060257,175
Grand Traverse County Jail,44.760999,-85.617649,158
Granite County Jail,46.333786,-113.293109,1
Grant County Detention Center,32.764307,-108.287181,74
Grant County Jail,36.808559,-97.734315,16
Grant County Jail,37.580217,-101.356031,22
Grant County Jail,38.643146,-84.568392,288
Grant County Jail,42.855145,-90.708491,43
Grant County Jail,47.32192,-119.55365,185
Grant County Milbank Detention Center,45.217652,-96.635849,14
Grant County Security Complex,40.557405,-85.657943,267
Grant County Work Release Center,47.317176,-119.527228,54
Grant Parish Detention Facility,31.516548,-92.712523,98
Granville County jail,36.312575,-78.588396,79
Gratiot County Jail,43.291076,-84.604161,59
Graves County Jail,36.741153,-88.635186,51
Gray County Jail,35.53698,-100.962988,74
Grays Harbor County Jail,46.981992,-123.6016,152
Grayson County Jail,33.634365,-96.610473,224
Grayson County Jail and Annex,37.495012,-86.262042,602
Great Falls Pre-Release,47.51642,-111.273523,236
Great Meadow,43.449658,-73.43927,1628
Great Plains Correctional Facility,35.442505,-98.367613,1685
Green Bay Correctional Institution,44.470363,-88.036686,1092
Green County Jail,42.606954,-89.62411,47
Green Haven Correctional Facility,41.576332,-73.716686,2062
Green Lake County Jail,43.845646,-88.960837,35
Green River Correctional Complex,37.31657,-87.112358,949
Green Rock Correctional Center and Chatham Diversion Center,36.79798,-79.423449,496
Greene,42.346632,-73.824579,1759
Greene County Adult Detention,39.694093,-83.966956,117
Greene County Jail,36.077136,-90.542647,132
Greene County Jail,36.162465,-82.830446,362
Greene County Jail,37.218101,-93.292754,411
Greene County Jail,39.024001,-86.928095,76
Greene County Jail,39.300711,-90.411117,10
Greene County Jail,39.685663,-83.92828,153
Greene County Jail,42.217462,-73.864014,55
Greene County Law Enforcement Center,33.569202,-83.191789,61
Greene County Work Camp,39.455096,-90.378013,193
Greene County Workhouse,39.02601,-86.927997,31
Greeneville County Detention Center,34.85392,-82.386657,1176
Greenlee County Correctional Facility,33.028103,-109.298402,33
Greensville Correctional Center,36.797002,-77.48248,3276
Greenup County Detention Center,38.57811,-82.835478,130
Greenwood County Detention Center,34.186945,-82.164672,153
Greenwood County Jail,37.821697,-96.29483,26
Greer County Jail,34.873933,-99.505218,51
Gregg County Jail,32.496659,-94.738733,174
Gregg County Jail,32.499161,-94.739516,534
Grendada County Jail,33.785707,-89.803819,139
Grimes-Mcpherson Correctional Facility,35.637118,-91.180782,1777
Groveland,42.669922,-77.830241,991
Growlersburg Conservation Camp,38.903568,-120.871265,114
Grundy County Jail,35.436563,-85.710338,44
Grundy County Jail,40.074208,-93.618105,17
Grundy County Jail,41.356901,-88.423169,26
Guadalupe County Correctional Facility,34.91415,-104.695792,566
Guadalupe County Detention Center,29.60348,-97.967744,465
Guernsey County Jail,40.01778,-81.585215,61
Guilford Correctional Center,36.142299,-79.548704,151
Guilford County,36.071072,-79.794545,489
Guilford County Jail,35.95535,-79.998557,315
Gulf Correctional Institution,30.175118,-85.263777,1564
Gulf Correctional Institution,30.182942,-85.266975,1450
Gulf County Jail,29.812994,-85.289462,41
Gulf Forestry Camp,29.902444,-85.136312,273
Gunnison County Jail,38.546079,-106.924976,3
Gwinnett County Jail,33.983915,-83.977997,3030
Habersham County Jail,34.610729,-83.534226,114
Halawa Correctional Facility,21.372573,-157.90044,928
Hale,43.020102,-74.299548,431
Hale County Jail,32.717298,-87.620471,64
Hale County Law Enforcement Center,34.201074,-101.708506,160
Halifax County Adult Detention Center,36.756489,-78.939055,161
Hall County Correctional Institution,34.309974,-83.812037,148
Hall County Corrections,40.926264,-98.327322,225
Hall County Detention Center,34.240468,-83.817068,1122
Hall County Jail,34.721433,-100.531719,6
Hamblen County Jail,36.215471,-83.297939,276
Hamilton Aged and Infirmed Center,34.121425,-87.992248,293
Hamilton Correctional Institution,30.500094,-82.973578,2877
Hamilton County Corrections Center,39.107391,-84.508906,1436
Hamilton County Jail,30.526196,-82.940803,60
Hamilton County Jail,31.692726,-98.12713,17
Hamilton County Jail,35.049067,-85.30797,521
Hamilton County Jail,40.052634,-85.993737,311
Hamilton County Jail,40.863883,-98.003337,9
Hamilton County Jail,43.424842,-74.442876,1
Hamilton Work Release Center,34.138896,-87.956746,264
Hammond City Jail,30.504953,-90.458079,21
Hampden County Correctional Center,42.197547,-72.505389,159
Hampden County Correctional Center,42.203708,-72.511939,1069
Hampshire County Jail,42.308187,-72.659661,249
Hampton City Jail,37.026724,-76.346649,243
Hampton County Jail,32.862541,-81.088817,56
Hampton Roads Regional Jail,36.806523,-76.361014,1369
Hanceville City Jail,34.058964,-86.767428,3
Hancock County Jail,33.278706,-82.974395,28
Hancock County Jail,36.528249,-83.215435,101
Hancock County Jail,39.784844,-85.767355,168
Hancock County Jail,40.414725,-91.146731,10
Hancock County Jail,44.543408,-68.426258,54
Hancock County Justice Center,41.03848,-83.652843,121
Hancock State Prison,33.245598,-82.950075,1329
Hansford County Jail,36.198201,-101.192107,3
Haralson County Jail,33.799854,-85.179627,99
Hardee Corr Inst and Work Camp,27.577605,-81.9956,1616
Hardeman County Correctional Center,35.289742,-89.158069,1965
Hardeman County Jail,34.297537,-99.741334,6
Hardin County Detention Center,37.661298,-85.851792,625
Harlan County Detention Center,36.868028,-83.195126,192
Harlan County Jail,40.099807,-99.362799,3
Harmon County Jail,34.6823,-99.919148,57
Harnett Correctional Institution,35.386557,-78.800592,981
Harper County Jail,36.832927,-99.62885,4
Harris County Jail,32.764188,-84.860845,106
Harris County Jail Facility,29.764125,-95.354964,9043
Harris County Jail Facility,29.807656,-95.229554,488
Harris County Prison Camp,32.76582,-84.865038,90
Harrison County Jail,32.544601,-94.36882,138
Harrison County Jail,38.225906,-86.142739,158
Harrison County Jail,40.269707,-94.035137,14
Harrisonburg Men's Diversion Center,38.531742,-78.817633,88
Hart County Jail,34.355587,-82.932815,41
Hart County Jail,37.281133,-85.892359,121
Hartford Correctional,41.789979,-72.663577,1095
Hartford County Detention Center,39.554227,-76.362675,397
Harvey County Jail,38.051693,-97.344098,102
Haskell County Jail,33.171283,-99.723557,491
Haskell County Jail,37.479577,-100.843051,3
Hawkins County Jail,36.405848,-83.005587,147
Haynesville Correctional Unit #17,37.96919,-76.664316,104
Hays County Jail,29.900404,-97.903945,259
Hays State Prison,34.508113,-85.311563,1664
Haysi Regional Jail,37.21631,-82.286792,256
Haywood County Jail,35.472066,-83.00511,125
Haywood County Jail,35.582606,-89.198209,87
Hazelton USP,39.672924,-79.497081,1522
Hazelton-Camp,39.670652,-79.512051,122
Hazelton-Female,39.665781,-79.501344,442
Healdton and Marshall Co Cmty Work Center,34.091837,-96.768982,42
Healdton Community Center,34.234549,-97.487168,58
Heard County Jail,33.289793,-85.11457,57
Helen B Ratcliff Work Release,47.589211,-122.316633,35
Helena Pre-Release Center,46.593168,-111.973103,91
Hemphill County Jail,35.912856,-100.383006,4
Hempstead County Jail,33.664685,-93.599196,51
Henderson County Detention Center,37.812831,-87.625963,544
Henderson County Jail,32.207287,-95.84491,366
Henderson County Jail,35.316098,-82.456181,140
Henderson County Jail,35.653995,-88.387674,76
Henderson Detention Center,36.031095,-114.980068,202
Hendry Correctional Institution,26.275589,-81.230292,1236
Hendry County Jail,26.760289,-81.436732,187
Hennepin County Adult Detention Center,44.97669,-93.264068,362
Hennepin County Adult Detention Center,44.97727,-93.26543,290
Hennepin County Workhouse,44.992185,-93.478817,461
Henrico County Jail,37.628691,-77.516567,679
Henry County Jail,31.57014,-85.248754,55
Henry County Jail,33.419425,-84.161054,675
Henry County Jail,36.303109,-88.338429,166
Henry County Jail,36.753573,-79.89768,188
Henry County Jail,38.368815,-93.777493,21
Henry County Jail,39.931501,-85.372243,67
Henry County Jail,39.932059,-85.37217,113
Henry County Jail,40.963783,-91.552576,6
Henry County Jail,41.302168,-90.197399,96
Henryville Correctional Facility,38.571208,-85.79955,194
Herkimer County Correctional Facility,43.029046,-74.988338,27
Hernando Correctional Institution,28.486751,-82.446839,944
Hertford County Jail,36.397689,-76.934908,64
Hiawatha (closed August 2009) and Straits,46.257628,-84.451963,2222
Hickman County Jail,35.780675,-87.464069,102
Hickory County Jail,37.940926,-93.315946,9
Hidalgo County Jail,32.347992,-108.707905,23
High Desert Juvenile Detention,34.634117,-117.202679,106
High Security Center,41.749594,-71.461636,86
Highland County Jail,39.23644,-83.614363,69
Highland Heights City Jail,41.556384,-81.465979,1
Highlands County Jail,27.493464,-81.435905,383
Hiland Mountain Correctional Center,61.299241,-149.56898,405
Hill Correctional Center,40.940014,-90.407501,1844
Hill County Jail,48.550382,-109.703864,30
Hill Detention Center,36.170134,-86.779549,489
Hillsborough Correctional Institution,27.774392,-82.320601,285
Hillsborough County CSC,27.99494,-82.509568,25
Hillsborough County- Falkenberg Road Jail and Work Release Center,27.964527,-82.345352,2340
Hillsborough County- Orient Road Jail,27.965521,-82.371006,898
Hillsdale County Jail,41.931789,-84.646395,64
Hilltop Recovery Services,38.774182,-122.712203,33
Hinds County Restitution Center,32.296762,-90.193587,66
Hitchcock County Jail,40.176173,-101.011273,4
Hobert Community Work Center,35.025134,-99.095265,82
Hocking Correctional Facility,39.474818,-82.233466,485
Hockley county Jail,33.57878,-102.379073,54
Hoke Correctional Institution,35.052089,-79.341579,320
Hoke County Jail,34.982073,-79.223131,133
Hollandale City Jail,33.167454,-90.852388,2
Hollywood Work Release Center,25.996009,-80.251494,111
Holman Prison,31.133766,-87.442621,998
Holmes Correctional Institution,30.75183,-85.674493,1381
Holmes County Jail,40.61501,-81.905886,28
Holmes Work Camp,30.752344,-85.650545,83
Holt County Jail,39.986615,-95.144058,10
Holt County Jail,42.45947,-98.647072,4
Homestead Correctional Institution,25.415816,-80.496717,662
Homewood City Jail,33.479343,-86.790694,18
Honor Farm,37.889578,-121.293914,381
Hood County Jail,32.44354,-97.803689,185
Hope House Residential Facility,41.70065,-91.601282,53
Hopkins County Jail,37.341536,-87.53962,450
Hopkins County Law Enforcement Center,33.140142,-95.597878,77
Horry County Detention Center,33.910191,-79.052162,673
Hot Springs County Detention Center,43.646958,-108.209337,8
Houghton County,47.120078,-88.568758,28
Houston County Jail,31.224118,-85.378602,348
Houston County Jail,31.224424,-85.39283,114
Houston County Jail,31.320603,-95.461265,70
Houston County Jail,32.46847,-83.702217,476
Houston County Jail,36.34448,-87.673885,20
Houston County Jail,43.632788,-91.495868,13
Howard County Jail,39.147444,-92.680908,6
Howard County Jail,39.171066,-76.783674,245
Howard County Jail,40.476633,-86.155937,343
Howard McLeod Correctional Center,34.15843,-95.817907,648
Howard R. Young Correctional Institution,39.741353,-75.530626,1523
Howell County Detention Center,36.741841,-91.865607,44
Hubbard County Jail,46.919982,-95.063819,25
Hudson Correctional Facility,42.242543,-73.790107,51
Hudson Correctional Facility,42.244389,-73.793876,77
Hudson Correctional Facility,42.245099,-73.787407,109
Hudson Correctional Facility,42.247218,-73.795501,126
Hudson Health Center,39.328452,-82.099274,10
Hudspeth County Jail,31.178263,-105.357503,86
Huerfano County Jail,37.623961,-104.781838,15
Hueytown City Jail,33.444068,-86.9934,28
Hughes Unit,31.485975,-97.707782,2882
Humboldt Conservation Camp,40.880027,-117.954162,118
Humboldt County Jail,40.802863,-124.162213,391
Humboldt County Jail,40.979686,-117.720231,24
Humphreys County Jail,33.174156,-90.488304,29
Humphreys County Jail,36.081061,-87.797518,54
Hunt County Criminal Justice Center,33.137364,-96.10469,261
Hunterdon County Jail,40.511193,-74.860069,116
Huntington County Jail,40.8808,-85.491094,122
Huntington Work Release Center,38.4208,-82.437578,67
Huron County Jail,41.222434,-82.60837,95
Huron County Jail,43.8016,-82.998186,54
Hurst City Jail,32.839309,-97.187962,15
Hutchinson Correctional Facility,38.040506,-97.907988,239
Hutchinson Correctional Facility,38.044455,-97.911457,1079
Hutchinson Correctional Facility,38.045737,-97.884043,457
Hutchinson County Jail,35.827459,-101.442338,91
Huttonsville Correctional Center,38.69555,-79.979258,1135
Hyde Correctional Institution,35.495437,-76.330421,752
Iberia Parish Criminal Justice Facility,30.017585,-91.883462,476
Idabel Community Work Center,33.894866,-94.846493,82
Idaho Correctional Institution- Orofino,46.49114,-116.261968,531
Idaho Department of Correction District 5,42.539218,-114.48532,82
Idaho Falls Community Work Center,43.4624,-112.064381,83
Illinois River Correctional Center,40.558677,-90.079605,2069
Illinois Youth Center Kewanee,41.252728,-89.894409,205
Imperial County Jail,32.740523,-115.564899,637
Independence County Jail,35.765395,-91.658152,91
Independence House- Pecos,39.773519,-105.007029,66
Indian River County Jail,27.665081,-80.425859,480
Indiana State Prison,41.703824,-86.918191,819
Indiana State Prison,41.704269,-86.914692,1402
Indiana Women's Prison,39.799612,-86.296645,69
Indianapolis Men's Work Release Center,39.758262,-86.166551,124
Indianapolis Re-entry Educational Facility,39.772739,-86.126898,322
Indio Jail,33.711222,-116.222989,365
Ingham County Jail,42.592964,-84.456702,677
Intake Service Center,41.748723,-71.463728,908
Integrity Correctional Center,38.723087,-93.915981,71
Intervention Community Corrections Services,39.743621,-105.069237,254
Ionia County Jail,42.981846,-85.059049,112
Ionia Max Correctional Facility,42.984514,-85.100603,654
Iosco County Jail,44.268827,-83.516821,70
Iowa Correctional Institution for Women,41.659096,-93.363511,549
Iowa County Jail,42.973562,-90.129515,22
Iowa Medical and Classification Center,41.710087,-91.624654,928
Iowa State Penitentiary,40.634721,-91.288243,1002
Iredell County Jail,35.788215,-80.885669,271
Iron County Jail,37.597762,-90.629214,17
Iron County Jail,37.716402,-113.057595,136
Iron County Jail,46.096462,-88.335359,26
Iron County Jail,46.436714,-90.187019,10
Ironwood State Prison and Chuckawalla Valley State Prison,33.559767,-114.913328,7634
Iroquois County Jail,40.771653,-87.715696,20
Irwin County Jail,31.5804,-83.257924,534
Isabella County Jail,43.605791,-84.775795,156
Isanti county jail,45.555153,-93.230519,41
ISHI Conservation Camp,40.31392,-121.896,87
Island County Jail,48.217499,-122.685567,49
Itasca County Jail,47.236445,-93.525239,55
Itawamba County Jail,34.272516,-88.408788,16
Izard County Jail,36.056352,-91.915591,28
J Montgomery Correctional Center,30.525025,-81.716948,592
J. Levy Dabadie Correctional Center,31.375707,-92.389093,586
Jackie Brannon CC,34.948644,-95.782728,769
Jackson City Jail,33.294046,-83.965993,2
Jackson Correctional Institution,44.304736,-90.779232,988
Jackson Correctional Institution and Work Camp,30.967913,-85.169709,1440
Jackson County Correctional Facility,30.765488,-85.257556,227
Jackson County Correctional Institution,34.144406,-83.555817,168
Jackson County Detention Center,35.604922,-91.284604,52
Jackson County Detention Center,39.09773,-94.576899,744
Jackson County Jail,28.977786,-96.646865,62
Jackson County Jail,30.373731,-88.544545,512
Jackson County Jail,34.14484,-83.556997,177
Jackson County Jail,34.665321,-86.045452,130
Jackson County Jail,36.349209,-85.654639,79
Jackson County Jail,37.43047,-83.998128,34
Jackson County Jail,37.762341,-89.334766,85
Jackson County Jail,38.874357,-86.036349,166
Jackson County Jail,39.052837,-82.636992,37
Jackson County Jail,39.45844,-95.746529,51
Jackson County Jail,40.73145,-106.283623,1
Jackson County Jail,42.245139,-84.410285,178
Jackson County Jail,43.621954,-94.990006,12
Jackson County Jail,44.295416,-90.851958,38
Jackson Parish Correctional Center,32.214218,-92.714207,816
Jacksonville City,30.325357,-81.650625,3740
Jacksonville Correctional Center,39.726636,-90.174728,996
James City County: Virginia Peninsula Regional Jail,37.21648,-76.603535,432
James Crabtree CC,36.546009,-98.27793,1003
James River Correctional Center,37.644964,-77.828913,630
James River Correctional Center,46.882781,-98.684535,417
James River Work Center,37.644757,-77.826842,57
James T. Vaughn Correctional Center/Central Violation Probation Centter,39.331224,-75.59742,2590
Jasper County Community Corrections,40.948284,-87.185366,19
Jasper County Jail,31.974311,-89.290595,66
Jasper County Jail,32.49374,-80.972365,73
Jasper County Jail,33.318194,-83.730005,40
Jasper County Jail,37.175627,-94.307107,200
Jasper County Jail,38.99171,-88.16017,4
Jasper County Jail,40.958632,-87.14658,76
Jasper County Law Enforcement Center,30.925769,-93.989788,68
Jasper Police Department,33.835609,-87.275273,40
Jay County Jail,40.43281,-84.979767,45
Jean Conservation Camp,35.748418,-115.284978,150
Jeff Davis County Jail,31.868211,-82.600066,44
Jefferson City Correction Center,38.552292,-92.049,120
Jefferson Correctional Institution,30.509119,-83.799559,1154
Jefferson Correctional Institution,30.509842,-83.801987,3
Jefferson County Correctional Institution,33.021876,-82.406689,179
Jefferson County Detention Center,30.008341,-94.056233,871
Jefferson County Detention Facility,39.730586,-105.20065,1053
Jefferson County Jail,30.502384,-83.882366,44
Jefferson County Jail,33.020249,-82.405908,84
Jefferson County Jail,36.029126,-83.424921,67
Jefferson County Jail,36.037052,-83.428702,143
Jefferson County Jail,38.227133,-90.570547,254
Jefferson County Jail,38.735982,-85.376104,80
Jefferson County Jail,39.206806,-95.311582,16
Jefferson County Jail,40.13357,-97.177883,8
Jefferson County Jail,40.362222,-80.610267,52
Jefferson County Jail,43.002473,-88.806695,149
Jefferson County Jail,43.678692,-111.910254,80
Jefferson County Jail,43.972778,-75.928576,150
Jefferson County Jail,46.235978,-112.120295,14
Jefferson County Jail,48.026344,-122.762119,43
Jefferson County Jail and Adult Detention Center,34.22769,-92.000387,257
Jefferson County Justice Center,38.313774,-88.901289,13
Jefferson County Sheriff's Office,33.523083,-86.808764,905
Jefferson Davis Correctional Center,30.223071,-92.655785,74
Jefferson Davis County Jail,31.601457,-89.865,24
Jefferson Parish Correctional Center,29.915076,-90.068163,943
Jefferson-Franklin County Regional Correctional Facility,31.697838,-91.064807,96
Jefferson-Franklin County Regional Correctional Facility,31.701252,-91.073766,240
Jennifer Road Detention Center,38.988943,-76.530825,546
Jennings City Jail,30.221329,-92.656927,46
Jennings City Jail,38.711858,-90.268886,40
Jennings County Jail,38.993976,-85.617562,130
Jerome Combs Detention Center,41.06433,-87.86369,429
Jerome County Jail,42.72655,-114.517585,54
Jersey County Jail,39.119177,-90.329277,20
Jess Dunn CC,35.768266,-95.542781,784
Jessamine County Detention Center,37.880087,-84.569451,189
Jester 1 - SAFPF - Substance Abuse Punishment Facility,29.622806,-95.704996,273
Jester IV Psychiatric Facility,29.609134,-95.708075,480
Jester Unit III,29.622824,-95.708213,1093
Jewell County Jail,39.788386,-98.210631,2
Jim E. Hamilton CC,34.752542,-94.66898,743
Jim Hogg County Jail,27.306089,-98.676711,16
Jim Wells County Jail,27.753634,-98.069453,62
Jimmy Autry Correctional Institution,31.185078,-84.143804,1651
Joe Daviess County Jail,42.417893,-90.425593,13
John C. Burke Corr. Inst.,43.619239,-88.740717,189
John J. Moran Medium Security Facility,41.742755,-71.468391,1043
John L. Webb Correctional Facility,39.737841,-75.629762,60
John Lilley CC,35.481784,-96.473557,831
Johnson City Jail,36.321423,-82.341767,104
Johnson Correctional Center,35.557701,-78.328267,639
Johnson County Jail,32.377489,-97.389346,478
Johnson County Jail,32.743476,-82.700958,38
Johnson County Jail,35.457716,-93.446396,57
Johnson County Jail,35.51091,-78.347116,177
Johnson County Jail,36.466732,-81.798537,114
Johnson County Jail,38.765642,-93.741996,36
Johnson County Jail,39.475127,-86.088725,240
Johnson County Jail,41.654987,-91.536989,72
Johnson County Jail,44.347472,-106.711159,30
Johnson County Jail (New Century Detention Center),38.838383,-94.903229,816
Johnson State Prison,32.758798,-82.675879,1562
Johnston County Jail,34.237111,-96.680352,49
Jones County Jail,31.627032,-89.18485,186
Jones County Jail,32.757525,-99.897401,17
Jones County Jail,33.004899,-83.529458,157
Jones County Jail,35.062803,-77.353193,17
Jones Farm Work Camp,40.26672,-74.831276,225
Jonesboro Human Development Center,35.782883,-90.674178,108
Joplin City Jail,37.088845,-94.509991,69
Joseph Harp CC,35.016263,-97.218757,1518
Joshua Glover Center,43.05841,-87.904685,22
Juab County Jail,39.671366,-111.849242,36
Julius Klein Conservation Camp,34.221133,-117.834005,117
Juneau County Jail,43.795324,-90.075876,71
Kalamazoo County Jail,42.276136,-85.549342,292
Kalkaska County Correctional Facility,44.737309,-85.189595,55
Kanabec County Jail,45.876971,-93.292911,29
Kanawha County South Central Regional Jail,38.312008,-81.714926,332
Kandiyohi County Jail,45.147419,-95.014211,145
Kane County Jail,37.048976,-112.527443,22
Kane County Jail,41.900033,-88.370079,644
Kankakee County Jail,41.117976,-87.860781,158
Kankakee Minimum Security,41.188741,-87.653898,93
Kansas City Correctional Institution,39.106708,-94.597578,296
Karnes County Correctional Center,28.882016,-97.911225,312
Karnes County Jail,28.885465,-97.902108,1
Kate Barnard Community Corrections Center,35.510592,-97.573102,154
Kauai Com Correct Center,22.025588,-159.342638,289
Kearny County Jail,37.942722,-101.256169,6
Kearny County Jail,40.497109,-98.948401,5
Keith County Jail,41.128842,-101.719303,8
Kemper County Jail,32.766402,-88.674184,333
Kendall County Jail,29.805354,-98.723788,31
Kendall County Jail,41.6582,-88.468111,61
Kennebec County Jail,44.313541,-69.776562,168
Kennesaw City Jail,34.021166,-84.623982,10
Kenosha Correctional Center,42.576729,-87.826557,106
Kenosha County Detention Center,42.5927,-87.91001,512
Kenosha County Pre-Trial Facility,42.585473,-87.823014,240
Kent City Jail,47.368842,-122.228447,130
Kent County,42.975529,-85.634796,1008
Kent County Detention Center,39.222432,-76.087745,77
Kenton County Detention Center,39.088263,-84.509229,498
Kentucky Correctional Institution for Women,38.288135,-85.443764,719
Kentucky State Penitentiary,37.056512,-88.074137,861
Kentucky State Reformatory,38.389704,-85.42321,1947
Kerr County Jail,30.028522,-99.125925,156
Kershaw Correctional Institution,34.597368,-80.552296,1548
Ketchikan Correctional Center,55.34717,-131.643118,69
Kettle Moraine Correctional Institution,43.712602,-88.158215,1167
Kewaunee County Jail,44.456743,-87.505194,22
Keweenaw County Jail,47.413548,-88.294374,4
Kilby Correctional Facility and Montgomery Work Release Center,32.386728,-86.099145,1680
Kimball County Jail,41.234984,-103.661955,6
Kimble County Jail,30.489759,-99.764639,10
King County Correctional Facility,47.603571,-122.328307,1662
King County Regional Justice Center,47.384725,-122.239655,649
Kingfisher County Jail,35.860383,-97.932046,35
Kingman County Jail,37.642468,-98.110901,6
Kings County Jail,36.331368,-119.671099,314
Kinney County Jail,29.311328,-100.417707,25
Kinross Correctional Facility,46.261119,-84.468978,1854
Kiowa County Jail,35.02515,-99.092455,18
Kirkland City Jail,47.678238,-122.207192,17
Kirtland AFB disciplinary barracks,35.047155,-106.551654,4
Kissimmee Work Release Center,28.333579,-81.389165,113
Kit Carson County Correctional Center,39.304198,-102.24563,997
Kit Carson County Jail,39.302865,-102.271334,20
Kitsap County Correctional Center,47.53712,-122.637795,354
Kittitas County Jail,46.997017,-120.549366,118
Kleberg County Jail,27.519541,-97.845265,120
Klickitat County Detention Facility,45.821079,-120.823606,25
Knox County Detention Facility,36.084447,-83.847907,775
Knox County Jail,33.583446,-99.794554,11
Knox County Jail,35.96012,-83.916597,186
Knox County Jail,36.866297,-83.890064,53
Knox County Jail,38.640621,-87.528064,220
Knox County Jail,38.675711,-87.526089,75
Knox County Jail,40.401779,-82.434079,53
Knox County Jail,40.945731,-90.367179,90
Knox County Jail,42.608878,-97.877234,6
Knox County Jail,44.104336,-69.134364,74
Knox County Work Release Center,36.079138,-83.836342,52
Konocti Conservation Camp,38.910602,-122.69646,103
Koochiching County Law Enforcement Center,48.601356,-93.410502,9
Kootenai County Jail,47.721317,-116.785796,327
Kootenai County Work Release Center,47.719938,-116.779027,16
Kosciusko County Jail,41.238598,-85.858618,223
Kosciusko Work Release Center,41.240182,-85.821114,35
Kotzebue Regional Jail Facility,66.895635,-162.594933,8
La Cima Conservation Camp,32.951602,-116.535483,81
La Crosse County,43.814878,-91.250303,173
La Paz County Jail,34.145445,-114.290353,194
La Plata County Jail,37.247021,-107.878603,124
La Porte County Jail,41.611695,-86.722547,340
La Vista Correctional Facility,38.279508,-104.628013,447
Labette County Jail,37.165553,-95.107987,48
Lac Qui Parle County Jail,45.014835,-96.193205,2
Lackawanna County Prison,41.422275,-75.648933,767
Laclede County Jail,37.683231,-92.664047,105
Lafayette County Jail,30.054834,-83.176506,18
Lafayette County Jail,33.357741,-93.576973,29
Lafayette County Jail,34.368387,-89.522231,168
Lafayette County Jail,42.682412,-90.118393,24
Lafayette Parish Correctional Center,30.223489,-92.021347,1082
Lafourche Parish Detention Center,29.769413,-90.845944,164
Lafourche Parish Work Release Facility,29.740554,-90.556208,197
Lagrange Transitional Center,33.027442,-84.969149,154
Laguna Police Department,35.045411,-107.364355,37
Lake City Work Release Center,30.193941,-82.65164,114
Lake Correctional Institution,28.621185,-81.767044,1138
Lake County,43.904833,-85.856738,271
Lake County Adult Detention Center,41.725889,-81.244417,295
Lake County Community Corrections,41.45141,-87.369926,124
Lake County Hill Road Correctional Facility,39.10406,-122.913623,213
Lake County Jail,28.801701,-81.732634,895
Lake County Jail,36.377888,-89.484976,39
Lake County Jail,39.248047,-106.292824,11
Lake County Jail,41.445063,-87.368273,1292
Lake County Jail,42.189078,-120.345414,13
Lake County Jail,42.35889,-87.833275,701
Lake County Jail,44.005635,-97.111801,15
Lake County Jail,47.691797,-114.161073,35
Lake Erie Correctional Institution,41.945897,-80.537898,1500
Lake of the Woods County Jail,48.709574,-94.584169,2
Lakeview,42.407476,-79.435305,783
Lakin Correctional Center,38.954139,-82.085252,446
Lamar County Jail,31.144621,-89.413162,130
Lamar County Jail,33.044381,-84.17441,93
Lamar County Jail,33.719776,-88.11024,52
Lamar Pre-Release Center,33.051388,-84.131122,203
Lamb County Jail,33.916953,-102.319547,40
Lampasas County Jail,31.064442,-98.178277,26
Lancaster Correctional Facility,40.858446,-96.778495,160
Lancaster County Correctional Center,37.773969,-76.454992,25
Lancaster County Detention Center,34.723817,-80.721957,136
Lancaster County Jail,40.808082,-96.707769,302
Lancaster County Prison,40.040248,-76.292418,950
Lane County Adult Corrections,44.054963,-123.093439,447
Lane County Jail,38.481809,-100.464875,3
Langlade County Safety Building,45.14405,-89.155137,99
Lanier County Jail,31.039537,-83.061569,208
Lansing Central Correctional Facility,39.251819,-94.894497,2342
Laramie County Detention Center,41.134796,-104.820106,184
Largo Work Camp,27.898134,-82.710798,105
Larimer County Jail,40.561489,-105.032019,867
Larned Correctional Mental Health Facility,38.177959,-99.147679,367
Larry A. Nelson Center and Gerald R.Hinzman Residential Center,41.947038,-91.681448,171
Larry D. Smith Correctional Facility,33.911774,-116.872232,908
Larue County Jail,37.573221,-85.741716,150
Las Animas County Jail,37.180247,-104.487808,31
Las Colinas Detention Facility,32.841776,-116.974707,615
LaSalle Correctional Center,31.858886,-92.295146,604
LaSalle County Jail,41.372376,-88.82696,176
LaSalle Detention Facility,31.708944,-92.15477,427
LaSalle Parish Jail,31.685488,-92.132363,13
Lassen County Jail,40.428101,-120.643899,190
Latah County Jail,46.730617,-116.996414,23
Latimer County Jai,34.919558,-95.310647,26
Lauderdale County Jail,32.364537,-88.698232,205
Lauderdale County Jail,34.794751,-87.66949,144
Lauderdale County Jail,35.750035,-89.556128,133
Laurel County Jail,37.127447,-84.084037,328
Laurens County Detention Center,34.488428,-81.949254,190
Laurens County Jail,32.491942,-82.92229,198
Lavaca County Jail,29.431448,-96.956216,38
Law Enforcement Center,46.407392,-105.844825,13
Lawrence Correctional Center,38.728137,-87.904026,2358
Lawrence County Jail,34.507388,-87.281139,108
Lawrence County Jail,35.243365,-87.336788,122
Lawrence County Jail,36.069887,-90.958505,32
Lawrence County Jail,37.104374,-93.817301,27
Lawrence County Jail,38.536433,-82.682655,90
Lawrence County Jail,38.862734,-86.481964,157
Lawrence County Jail,44.374497,-103.729473,30
Lawrenceville Correctional Center,36.779375,-77.820331,1583
Lawtey Correctional Institution,30.032481,-82.070822,828
Lawton City Jail,34.608083,-98.392822,78
Lawton Community Correction Center,34.566221,-98.400282,147
